[
  {
    "name": "Aberdeen Tribunal Hearing Centre",
    "slug": "Aberdeen-Tribunal-Hearing-Centre",
    "lat": "57.14560076",
    "lon": "-2.106341544",
    "number": "NULL",
    "address": "AB1!48 Huntly Street",
    "townName": "Aberdeen",
    "postcode": "AB10 1SH"
  },
  {
    "name": "Aberystwyth Justice Centre",
    "slug": "Aberystwyth-Justice-Centre",
    "lat": "52.410349",
    "lon": "-4.086091",
    "number": "0",
    "address": "Aberystwyth Justice Centre !Y Lanfa!Trefechan",
    "townName": "Aberystwyth",
    "postcode": "SY23 1AS"
  },
  {
    "name": "Administrative Court",
    "slug": "Administrative-Court",
    "lat": "51.51364538",
    "lon": "-0.113546081",
    "number": "NULL",
    "address": "Administrative Court Office!The Royal Courts of Justice!Strand!",
    "townName": "London",
    "postcode": "WC2A 2LL"
  },
  {
    "name": "Admiralty and Commercial Court",
    "slug": "Admiralty-and-Commercial-Court",
    "lat": "51.51589485",
    "lon": "-0.109676441",
    "number": "NULL",
    "address": "Rolls Building!7 Rolls Buildings!Fetter Lane!",
    "townName": "London",
    "postcode": "EC4A 1NL"
  },
  {
    "name": "Agricultural Land and Drainage - First-tier Tribunal (Property Chamber)",
    "slug": "Agricultural-Land-and-Drainage-First-tier-Tribunal-Property-Chamber",
    "lat": "NULL",
    "lon": "NULL",
    "number": "NULL",
    "address": "1st Floor!Piccadilly Exchange!Piccadilly Plaza!",
    "townName": "Manchester",
    "postcode": "M1 4AH"
  },
  {
    "name": "Aldershot Justice Centre",
    "slug": "Aldershot-Justice-Centre",
    "lat": "51.2504962",
    "lon": "-0.768949207",
    "number": "1305",
    "address": "The Court House!Civic Centre!Wellington Avenue!",
    "townName": "Aldershot",
    "postcode": "GU11 1NY"
  },
  {
    "name": "Amersham Law Courts",
    "slug": "Amersham-Law-Courts",
    "lat": "51.67466932",
    "lon": "-0.602852619",
    "number": "401",
    "address": "King George V Road",
    "townName": "Amersham",
    "postcode": "HP6 5AJ"
  },
  {
    "name": "Ashford Tribunal Hearing Centre",
    "slug": "Ashford-Tribunal-Hearing-Centre",
    "lat": "51.14844116",
    "lon": "0.870099688",
    "number": "NULL",
    "address": "1st Floor, Ashford House!County Square Shopping Centre",
    "townName": "Ashford",
    "postcode": "TN23 1YB"
  },
  {
    "name": "Avon and Somerset Enforcement Department",
    "slug": "Avon-and-Somerset-Enforcement-Department",
    "lat": "51.34387288",
    "lon": "-2.957008546",
    "number": "NULL",
    "address": "HMCTS!Central Accounts Dept!P.O. Box 480!",
    "townName": "Weston-Super-Mare",
    "postcode": "BS23 9BE"
  },
  {
    "name": "Aylesbury Crown Court",
    "slug": "Aylesbury-Crown-Court",
    "lat": "NULL",
    "lon": "NULL",
    "number": "401",
    "address": "Walton Street",
    "townName": "Aylesbury",
    "postcode": "HP21 7FT"
  },
  {
    "name": "Ayr Social Security and Child Support Tribunal",
    "slug": "Ayr-Social-Security-and-Child-Support-Tribunal",
    "lat": "55.46644863",
    "lon": "-4.624924954",
    "number": "NULL",
    "address": "Russell House!King Street",
    "townName": "Ayr",
    "postcode": "KA8 0BD"
  },
  {
    "name": "Bankruptcy Court (Central London)",
    "slug": "Bankruptcy-Court-Central-London",
    "lat": "51.51364538",
    "lon": "-0.113546081",
    "number": "NULL",
    "address": "Thomas More Building!Royal Courts of Justice!Strand!",
    "townName": "London",
    "postcode": "WC2A 2LL"
  },
  {
    "name": "Bankruptcy Court (High Court)",
    "slug": "Bankruptcy-Court-High-Court",
    "lat": "51.51576958",
    "lon": "-0.110316308",
    "number": "NULL",
    "address": " Rolls Building! 7 Rolls Buildings! Fetter Lane!",
    "townName": "London",
    "postcode": "EC4A 1NL"
  },
  {
    "name": "Barkingside  Magistrates' Court",
    "slug": "Barkingside-Magistrates-Court",
    "lat": "51.5877118",
    "lon": "0.08141615",
    "number": "NULL",
    "address": "Cranbrook Road",
    "townName": "Ilford",
    "postcode": "IG6 1HW"
  },
  {
    "name": "Barnet Civil and Family Courts Centre",
    "slug": "Barnet-Civil-and-Family-Courts-Centre",
    "lat": "51.6004433",
    "lon": "-0.195491447",
    "number": "NULL",
    "address": "St Marys Court!Regents Park Road!Finchley Central",
    "townName": "London",
    "postcode": "N3 1BQ"
  },
  {
    "name": "Barnsley Law Courts",
    "slug": "Barnsley-Law-Courts",
    "lat": "53.55468102",
    "lon": "-1.484375288",
    "number": "NULL",
    "address": "The Court House!Westgate",
    "townName": "Barnsley",
    "postcode": "S70 2DW"
  },
  {
    "name": "Barnstaple Magistrates', County and Family Court",
    "slug": "Barnstaple-Magistrates-County-and-Family-Court",
    "lat": "51.08130591",
    "lon": "-4.06467121",
    "number": "NULL",
    "address": "Barnstaple Law Courts !North Walk",
    "townName": "Barnstaple",
    "postcode": "EX31 1DU"
  },
  {
    "name": "Barrow-in-Furness County Court and Family Court",
    "slug": "Barrow-in-Furness-County-Court-and-Family-Court",
    "lat": "54.11652082",
    "lon": "-3.227592349",
    "number": "NULL",
    "address": "Barrow Law Courts!Abbey Road",
    "townName": "Barrow in Furness",
    "postcode": "LA14 5QX"
  },
  {
    "name": "Barrow-in-Furness Magistrates' Court",
    "slug": "Barrow-in-Furness-Magistrates-Court",
    "lat": "54.11652082",
    "lon": "-3.227592349",
    "number": "NULL",
    "address": "Abbey Road",
    "townName": "Barrow-in-Furness",
    "postcode": "LA14 5QX"
  },
  {
    "name": "Basildon Combined Court",
    "slug": "Basildon-Combined-Court",
    "lat": "51.57257124",
    "lon": "0.454792773",
    "number": "461",
    "address": "The Gore",
    "townName": "Basildon",
    "postcode": "SS14 2EW"
  },
  {
    "name": "Basildon Magistrates' Court and Family Court",
    "slug": "Basildon-Magistrates-Court-and-Family-Court",
    "lat": "51.57177086",
    "lon": "0.458227715",
    "number": "NULL",
    "address": "The Court House!Great Oaks",
    "townName": "Basildon",
    "postcode": "SS14 1EH"
  },
  {
    "name": "Basingstoke County Court and Family Court",
    "slug": "Basingstoke-County-Court-and-Family-Court",
    "lat": "51.26321604",
    "lon": "-1.083209132",
    "number": "NULL",
    "address": "The Court House!London Road",
    "townName": "Basingstoke",
    "postcode": "RG21 4AB"
  },
  {
    "name": "Basingstoke Magistrates' Court",
    "slug": "Basingstoke-Magistrates-Court",
    "lat": "51.26331471",
    "lon": "-1.083178505",
    "number": "NULL",
    "address": "The Court House!London Road",
    "townName": "Basingstoke",
    "postcode": "RG21 4AB"
  },
  {
    "name": "Bath Law Courts (Civil, Family and Magistrates)",
    "slug": "Bath-Law-Courts-Civil-Family-and-Magistrates",
    "lat": "51.38116956",
    "lon": "-2.352317918",
    "number": "NULL",
    "address": "The Law Courts!North Parade Road",
    "townName": "Bath",
    "postcode": "BA1 5AF"
  },
  {
    "name": "Bedford County Court and Family Court",
    "slug": "Bedford-County-Court-and-Family-Court",
    "lat": "52.135071",
    "lon": "-0.466958364",
    "number": "NULL",
    "address": "Shire Hall!3 St Paul's Square",
    "townName": "Bedford",
    "postcode": "MK40 1SQ"
  },
  {
    "name": "Belmarsh Magistrates' Court",
    "slug": "Belmarsh-Magistrates-Court",
    "lat": "51.40805",
    "lon": "0.01122",
    "number": "NULL",
    "address": "1 London Road!Bromley",
    "townName": "London",
    "postcode": "BR1 1RA"
  },
  {
    "name": "Berwick upon Tweed Magistrates' Court",
    "slug": "Berwick-upon-Tweed-Magistrates-Court",
    "lat": "55.76983477",
    "lon": "-2.001918783",
    "number": "NULL",
    "address": "40 Church Street",
    "townName": "Berwick upon Tweed",
    "postcode": "TD15 1DX"
  },
  {
    "name": "Beverley Magistrates' Court and Hearing Centre",
    "slug": "Beverley-Magistrates-Court-and-Hearing-Centre",
    "lat": "53.84052313",
    "lon": "-0.428668997",
    "number": "NULL",
    "address": "The Court House!Champney Road",
    "townName": "Beverley",
    "postcode": "HU17 9EJ"
  },
  {
    "name": "Bexley Magistrates' Court",
    "slug": "Bexley-Magistrates-Court",
    "lat": "51.4551821",
    "lon": "0.147899622",
    "number": "NULL",
    "address": "Norwich Place",
    "townName": "Bexleyheath",
    "postcode": "DA6 7ND"
  },
  {
    "name": "Bexleyheath Social Security and Child Support Tribunal",
    "slug": "Bexleyheath-Social-Security-and-Child-Support-Tribunal",
    "lat": "51.46281921",
    "lon": "0.132552033",
    "number": "NULL",
    "address": "40-46 Avenue Road",
    "townName": "Bexleyheath",
    "postcode": "DA7 4EG"
  },
  {
    "name": "Birkenhead County Court",
    "slug": "Birkenhead-County-Court",
    "lat": "53.3912774",
    "lon": "-3.016696178",
    "number": "NULL",
    "address": "76 Hamilton Street",
    "townName": "Birkenhead",
    "postcode": "CH41 5EN"
  },
  {
    "name": "Birmingham Civil and Family Justice Centre",
    "slug": "Birmingham-Civil-and-Family-Justice-Centre",
    "lat": "52.48165154",
    "lon": "-1.895661512",
    "number": "NULL",
    "address": "Priory Courts!33 Bull Street",
    "townName": "Birmingham",
    "postcode": "B4 6DS"
  },
  {
    "name": "Birmingham Crown Court",
    "slug": "Birmingham-Crown-Court",
    "lat": "52.482795",
    "lon": "-1.8925",
    "number": "404",
    "address": "Queen Elizabeth II Law Courts!1 Newton Street",
    "townName": "Birmingham",
    "postcode": "B4 7NA"
  },
  {
    "name": "Birmingham Immigration and Asylum Chamber (First Tier Tribunal)",
    "slug": "Birmingham-Immigration-and-Asylum-Chamber-First-Tier-Tribunal",
    "lat": "52.48165154",
    "lon": "-1.895661512",
    "number": "NULL",
    "address": "Priory Courts!33 Bull Street",
    "townName": "Birmingham",
    "postcode": "B4 6DS"
  },
  {
    "name": "Birmingham Magistrates' Court",
    "slug": "Birmingham-Magistrates-Court",
    "lat": "52.48363672",
    "lon": "-1.893860338",
    "number": "NULL",
    "address": "Victoria Law Courts!Corporation Street",
    "townName": "Birmingham",
    "postcode": "B4 6QA"
  },
  {
    "name": "Birmingham Social Security and Child Support Tribunal",
    "slug": "Birmingham-Social-Security-and-Child-Support-Tribunal",
    "lat": "NULL",
    "lon": "NULL",
    "number": "NULL",
    "address": "Administrative Support Centre  !PO Box 14620",
    "townName": "Birmingham",
    "postcode": "B16 6FR"
  },
  {
    "name": "Birmingham Youth Court",
    "slug": "Birmingham-Youth-Court",
    "lat": "52.48363672",
    "lon": "-1.893860338",
    "number": "NULL",
    "address": "Victoria Law Courts!Corporation Street!West Midlands!",
    "townName": "Birmingham",
    "postcode": "B4 6QA"
  },
  {
    "name": "Blackburn Family Court",
    "slug": "Blackburn-Family-Court",
    "lat": "53.74989851",
    "lon": "-2.482481613",
    "number": "NULL",
    "address": "64 Victoria Street",
    "townName": "Blackburn",
    "postcode": "BB1 6DJ"
  },
  {
    "name": "Blackburn Magistrates' Court",
    "slug": "Blackburn-Magistrates-Court",
    "lat": "53.74982981",
    "lon": "-2.486135488",
    "number": "NULL",
    "address": "The Court House!Northgate",
    "townName": "Blackburn",
    "postcode": "BB2 1AA"
  },
  {
    "name": "Blackpool  Family Court",
    "slug": "Blackpool-Family-Court",
    "lat": "53.81179725",
    "lon": "-3.053836329",
    "number": "NULL",
    "address": "The Law Courts!Chapel Street",
    "townName": "Blackpool",
    "postcode": "FY1 5RJ"
  },
  {
    "name": "Blackpool Magistrates' and Civil Court",
    "slug": "Blackpool-Magistrates-and-Civil-Court",
    "lat": "53.81180754",
    "lon": "-3.053836873",
    "number": "NULL",
    "address": "Civic Centre!Chapel Street",
    "townName": "Blackpool",
    "postcode": "FY1 5DQ"
  },
  {
    "name": "Blackwood Civil and Family Court",
    "slug": "Blackwood-Civil-and-Family-Court",
    "lat": "51.66653012",
    "lon": "-3.192904445",
    "number": "NULL",
    "address": "8 Hall Street",
    "townName": "Blackwood",
    "postcode": "NP12 1NY"
  },
  {
    "name": "Bodmin County Court and Family Court",
    "slug": "Bodmin-County-Court-and-Family-Court",
    "lat": "50.46952713",
    "lon": "-4.70886473",
    "number": "NULL",
    "address": "The Law Courts!Launceston Road",
    "townName": "Bodmin",
    "postcode": "PL31 2AL"
  },
  {
    "name": "Bodmin Magistrates' Court",
    "slug": "Bodmin-Magistrates-Court",
    "lat": "50.46952713",
    "lon": "-4.70886473",
    "number": "NULL",
    "address": "Launceston Road",
    "townName": "Bodmin",
    "postcode": "PL31 2AL"
  },
  {
    "name": "Bolton Crown Court",
    "slug": "Bolton-Crown-Court",
    "lat": "53.57820309",
    "lon": "-2.433688848",
    "number": "470",
    "address": "The Law Courts!Blackhorse Street",
    "townName": "Bolton",
    "postcode": "BL1 1SU"
  },
  {
    "name": "Bolton Magistrates' Court",
    "slug": "Bolton-Magistrates-Court",
    "lat": "53.57820309",
    "lon": "-2.433688848",
    "number": "NULL",
    "address": "The Law Courts!Blackhorse Street",
    "townName": "Bolton",
    "postcode": "BL1 1SU"
  },
  {
    "name": "Bolton Social Security and Child Support Tribunal",
    "slug": "Bolton-Social-Security-and-Child-Support-Tribunal",
    "lat": "53.58296338",
    "lon": "-2.427529668",
    "number": "NULL",
    "address": "Ground Floor!Bayley House!St Georges Square",
    "townName": "Bolton",
    "postcode": "BL1 2HB"
  },
  {
    "name": "Boston County Court and Family Court",
    "slug": "Boston-County-Court-and-Family-Court",
    "lat": "52.98304044",
    "lon": "-0.024938423",
    "number": "NULL",
    "address": "55 Norfolk Street",
    "townName": "Boston",
    "postcode": "PE21 6PE"
  },
  {
    "name": "Boston Magistrates' Court",
    "slug": "Boston-Magistrates-Court",
    "lat": "52.98304044",
    "lon": "-0.024938423",
    "number": "NULL",
    "address": "Boston Court House!55 Norfolk Street",
    "townName": "Boston",
    "postcode": "PE21 6PE"
  },
  {
    "name": "Bournemouth and Poole County Court and Family Court",
    "slug": "Bournemouth-and-Poole-County-Court-and-Family-Court",
    "lat": "50.74794274",
    "lon": "-1.816265581",
    "number": "NULL",
    "address": "Courts of Justice!Deansleigh Road",
    "townName": "Bournemouth",
    "postcode": "BH7 7DS"
  },
  {
    "name": "Bournemouth Crown Court",
    "slug": "Bournemouth-Crown-Court",
    "lat": "50.74794274",
    "lon": "-1.816265581",
    "number": "406",
    "address": "Courts of Justice!Deansleigh Road",
    "townName": "Bournemouth",
    "postcode": "BH7 7DS"
  },
  {
    "name": "Bradford  and Keighley Magistrates' Court and Family Court",
    "slug": "Bradford-and-Keighley-Magistrates-Court-and-Family-Court",
    "lat": "53.79176752",
    "lon": "-1.754175757",
    "number": "NULL",
    "address": "The Tyrls",
    "townName": "Bradford",
    "postcode": "BD1 1LA"
  },
  {
    "name": "Bradford Combined Court Centre",
    "slug": "Bradford-Combined-Court-Centre",
    "lat": "53.79257416",
    "lon": "-1.749359096",
    "number": "402",
    "address": "Exchange Square!Drake Street",
    "townName": "Bradford",
    "postcode": "BD1 1JA"
  },
  {
    "name": "Bradford Tribunal Hearing Centre",
    "slug": "Bradford-Tribunal-Hearing-Centre",
    "lat": "53.80101828",
    "lon": "-1.711305944",
    "number": "NULL",
    "address": "Phoenix House!Rushton Avenue!Thornbury!",
    "townName": "Bradford",
    "postcode": "BD3 7BH"
  },
  {
    "name": "Brentford County and Family Court",
    "slug": "Brentford-County-and-Family-Court",
    "lat": "51.48428548",
    "lon": "-0.304356146",
    "number": "NULL",
    "address": "Alexandra Road!High Street",
    "townName": "Brentford",
    "postcode": "TW8 0JJ"
  },
  {
    "name": "Bridlington Magistrates' Court and Hearing Centre",
    "slug": "Bridlington-Magistrates-Court-and-Hearing-Centre",
    "lat": "54.08519437",
    "lon": "-0.20018786",
    "number": "NULL",
    "address": "The Court House!Quay Road",
    "townName": "Bridlington",
    "postcode": "YO16 4EJ"
  },
  {
    "name": "Brighton County Court",
    "slug": "Brighton-County-Court",
    "lat": "50.82301576",
    "lon": "-0.135228266",
    "number": "NULL",
    "address": "William Street",
    "townName": "Brighton",
    "postcode": "BN2 0RF"
  },
  {
    "name": "Brighton District Probate Registry",
    "slug": "Brighton-District-Probate-Registry",
    "lat": "50.82301625",
    "lon": "-0.135227739",
    "number": "NULL",
    "address": "William Street",
    "townName": "Brighton",
    "postcode": "BN2 0RF"
  },
  {
    "name": "Brighton Magistrates' Court",
    "slug": "Brighton-Magistrates-Court",
    "lat": "50.8232257",
    "lon": "-0.134297005",
    "number": "NULL",
    "address": "The Law Courts!Edward Street",
    "townName": "Brighton",
    "postcode": "BN2 0LG"
  },
  {
    "name": "Brighton Tribunal Hearing Centre",
    "slug": "Brighton-Tribunal-Hearing-Centre",
    "lat": "50.832444",
    "lon": "-0.149259",
    "number": "NULL",
    "address": "City Gate House!185 Dyke Road",
    "townName": "Brighton",
    "postcode": "BN3 1TL"
  },
  {
    "name": "Brighton-Hearing Centre",
    "slug": "Brighton-Hearing-Centre",
    "lat": "50.82298321",
    "lon": "-0.135442538",
    "number": "NULL",
    "address": "1 Edward Street",
    "townName": "Brighton",
    "postcode": "BN2 0JD"
  },
  {
    "name": "Bristol Civil and Family Justice Centre",
    "slug": "Bristol-Civil-and-Family-Justice-Centre",
    "lat": "51.45242315",
    "lon": "-2.590509819",
    "number": "NULL",
    "address": "2 Redcliff Street",
    "townName": "Bristol",
    "postcode": "BS1 6GR"
  },
  {
    "name": "Bristol Crown Court",
    "slug": "Bristol-Crown-Court",
    "lat": "51.4547922",
    "lon": "-2.595001948",
    "number": "408",
    "address": "The Law Courts!Small Street",
    "townName": "Bristol",
    "postcode": "BS1 1DA"
  },
  {
    "name": "Bristol District Probate Registry",
    "slug": "Bristol-District-Probate-Registry",
    "lat": "1",
    "lon": "1",
    "number": "NULL",
    "address": "The Probate Registry of Wales!3rd Floor!Cardiff Magistrates' Court!Fitzalan Place",
    "townName": "Cardiff",
    "postcode": "CF24 0RZ"
  },
  {
    "name": "Bristol Magistrates' Court and Tribunals Hearing Centre",
    "slug": "Bristol-Magistrates-Court-and-Tribunals-Hearing-Centre",
    "lat": "51.45947791",
    "lon": "-2.593019014",
    "number": "NULL",
    "address": "Marlborough Street",
    "townName": "Bristol",
    "postcode": "BS1 3NU"
  },
  {
    "name": "Bromley County Court and Family Court",
    "slug": "Bromley-County-Court-and-Family-Court",
    "lat": "51.40880116",
    "lon": "0.013418685",
    "number": "NULL",
    "address": "Court House!College Road",
    "townName": "Bromley",
    "postcode": "BR1 3PX"
  },
  {
    "name": "Bromley Magistrates' Court",
    "slug": "Bromley-Magistrates-Court",
    "lat": "51.4077191",
    "lon": "0.010969842",
    "number": "NULL",
    "address": "The Court House!1 London Road",
    "townName": "Bromley",
    "postcode": "BR1 1RA"
  },
  {
    "name": "Burnley Combined Court Centre",
    "slug": "Burnley-Combined-Court-Centre",
    "lat": "53.78772679",
    "lon": "-2.247153293",
    "number": "409",
    "address": "The Law Courts!Hammerton Street",
    "townName": "Burnley",
    "postcode": "BB11 1XD"
  },
  {
    "name": "Burnley Magistrates' Court",
    "slug": "Burnley-Magistrates-Court",
    "lat": "53.78707325",
    "lon": "-2.242125636",
    "number": "NULL",
    "address": "The Court House!Parker Lane",
    "townName": "Burnley",
    "postcode": "BB11 2BS"
  },
  {
    "name": "Bury St Edmunds County Court and Family Court",
    "slug": "Bury-St-Edmunds-County-Court-and-Family-Court",
    "lat": "52.24858058",
    "lon": "0.711012457",
    "number": "NULL",
    "address": "Triton House!St Andrew's Street North",
    "townName": "Bury St. Edmunds",
    "postcode": "IP33 1TR"
  },
  {
    "name": "Bury St Edmunds Regional Divorce Centre",
    "slug": "Bury-St-Edmunds-Regional-Divorce-Centre",
    "lat": "NULL",
    "lon": "NULL",
    "number": "NULL",
    "address": "2nd Floor!Triton House!St Andrews Street North",
    "townName": "Bury St Edmunds",
    "postcode": "IP33 1TR"
  },
  {
    "name": "Caernarfon  Justice Centre",
    "slug": "Caernarfon-Justice-Centre",
    "lat": "53.14072194",
    "lon": "-4.264066258",
    "number": "0",
    "address": "Llanberis Road",
    "townName": "Caernarfon",
    "postcode": "LL55 2DF"
  },
  {
    "name": "Cambridge County Court and Family Court",
    "slug": "Cambridge-County-Court-and-Family-Court",
    "lat": "52.20376782",
    "lon": "0.131994857",
    "number": "NULL",
    "address": "197 East Road",
    "townName": "Cambridge",
    "postcode": "CB1 1BA"
  },
  {
    "name": "Cambridge Crown Court",
    "slug": "Cambridge-Crown-Court",
    "lat": "52.2068099",
    "lon": "0.136809434",
    "number": "410",
    "address": "The Court House!83 East Road",
    "townName": "Cambridge",
    "postcode": "CB1 1BT"
  },
  {
    "name": "Cambridge Magistrates' Court",
    "slug": "Cambridge-Magistrates-Court",
    "lat": "52.20438946",
    "lon": "0.122453108",
    "number": "NULL",
    "address": "12 St Andrews Street",
    "townName": "Cambridge",
    "postcode": "CB2 3AX"
  },
  {
    "name": "Cannock Magistrates' Court",
    "slug": "Cannock-Magistrates-Court",
    "lat": "52.68478049",
    "lon": "-2.035489729",
    "number": "NULL",
    "address": "The Court House!Wolverhampton Road",
    "townName": "Cannock",
    "postcode": "WS11 1AT"
  },
  {
    "name": "Canterbury Combined Court Centre",
    "slug": "Canterbury-Combined-Court-Centre",
    "lat": "51.28189581",
    "lon": "1.094980073",
    "number": "479",
    "address": "Canterbury Combined Court and Family Court Hearing Centre!The Law Courts!Chaucer Road!",
    "townName": "Canterbury",
    "postcode": "CT1 1ZA"
  },
  {
    "name": "Canterbury Magistrates' Court",
    "slug": "Canterbury-Magistrates-Court",
    "lat": "51.27870306",
    "lon": "1.085773306",
    "number": "NULL",
    "address": "Broad Street",
    "townName": "Canterbury",
    "postcode": "CT1 2UE"
  },
  {
    "name": "Cardiff  Magistrates' Court",
    "slug": "Cardiff-Magistrates-Court",
    "lat": "51.48210459",
    "lon": "-3.166483122",
    "number": "NULL",
    "address": "Fitzalan Place",
    "townName": "Cardiff",
    "postcode": "CF24 0RZ"
  },
  {
    "name": "Cardiff Civil and Family Justice Centre",
    "slug": "Cardiff-Civil-and-Family-Justice-Centre",
    "lat": "51.478158",
    "lon": "-3.179875164",
    "number": "NULL",
    "address": "2 Park Street",
    "townName": "Cardiff",
    "postcode": "CF10 1ET"
  },
  {
    "name": "Cardiff Crown Court",
    "slug": "Cardiff-Crown-Court",
    "lat": "51.48454728",
    "lon": "-3.180270534",
    "number": "411",
    "address": "The Law Courts!Cathays Park",
    "townName": "Cardiff",
    "postcode": "CF10 3PG"
  },
  {
    "name": "Cardiff Probate Registry of Wales",
    "slug": "Cardiff-Probate-Registry-of-Wales",
    "lat": "51.48210459",
    "lon": "-3.166483122",
    "number": "NULL",
    "address": "3rd Floor, Cardiff Magistrates Court!Fitzalan Place",
    "townName": "Cardiff",
    "postcode": "CF24 0RZ"
  },
  {
    "name": "Cardiff Social Security and Child Support Tribunal",
    "slug": "Cardiff-Social-Security-and-Child-Support-Tribunal",
    "lat": "NULL",
    "lon": "NULL",
    "number": "NULL",
    "address": "Eastgate House!35-43 Newport Road",
    "townName": "Cardiff",
    "postcode": "CF24 0AB"
  },
  {
    "name": "Care Standards Tribunal",
    "slug": "Care-Standards-Tribunal",
    "lat": "NULL",
    "lon": "NULL",
    "number": "NULL",
    "address": "1st Floor!Darlington Magistrates' Court!Parkgate!",
    "townName": "Darlington",
    "postcode": "DL1 1RU"
  },
  {
    "name": "Carlisle Combined Court",
    "slug": "Carlisle-Combined-Court",
    "lat": "54.89343101",
    "lon": "-2.931525242",
    "number": "412",
    "address": "Courts of Justice!Earl Street",
    "townName": "Carlisle",
    "postcode": "CA1 1DJ"
  },
  {
    "name": "Carlisle Magistrates' Court",
    "slug": "Carlisle-Magistrates-Court",
    "lat": "54.89751612",
    "lon": "-2.935533451",
    "number": "NULL",
    "address": "The Court House!Rickergate",
    "townName": "Carlisle",
    "postcode": "CA3 8QH"
  },
  {
    "name": "Carmarthen County Court and Family Court",
    "slug": "Carmarthen-County-Court-and-Family-Court",
    "lat": "51.85497742",
    "lon": "-4.317908506",
    "number": "NULL",
    "address": "The Hearing Centre!Hill House!Picton Terrace",
    "townName": "Carmarthen",
    "postcode": "SA31 3BT"
  },
  {
    "name": "Central Criminal Court",
    "slug": "Central-Criminal-Court",
    "lat": "51.51549137",
    "lon": "-0.101997219",
    "number": "413",
    "address": "Old Bailey",
    "townName": "London",
    "postcode": "EC4M 7EH"
  },
  {
    "name": "Central Family Court",
    "slug": "Central-Family-Court",
    "lat": "51.518436",
    "lon": "-0.114515648",
    "number": "NULL",
    "address": "First Avenue House!42-49 High Holborn",
    "townName": "London",
    "postcode": "WC1V 6NP"
  },
  {
    "name": "Central London County Court",
    "slug": "Central-London-County-Court",
    "lat": "51.51414311",
    "lon": "-0.113741703",
    "number": "NULL",
    "address": "County Court at Central London, Royal Courts of Justice!Thomas More Building!Royal Courts of Justice!Strand",
    "townName": "London",
    "postcode": "WC2A 2LL"
  },
  {
    "name": "Central London County Court (Bankruptcy)",
    "slug": "Central-London-County-Court-Bankruptcy",
    "lat": "NULL",
    "lon": "NULL",
    "number": "NULL",
    "address": "Room 1.05!1st Floor, Thomas More Building!Royal Courts of Justice!Strand",
    "townName": "London",
    "postcode": "WC2A 2LL"
  },
  {
    "name": "Central London Employment Tribunal",
    "slug": "Central-London-Employment-Tribunal",
    "lat": "51.51581584",
    "lon": "-0.118745426",
    "number": "NULL",
    "address": "Victory House!30-34 Kingsway",
    "townName": "London",
    "postcode": "WC2B 6EX"
  },
  {
    "name": "Central Probate Service Centre",
    "slug": "central-probate-service-centre",
    "lat": "53.76353387",
    "lon": "-2.702384715",
    "number": "NULL",
    "address": "HMCTS Probate!PO Box 12625",
    "townName": "Harlow",
    "postcode": "CM20 9QE"
  },
  {
    "name": "Centralised Attachment of Earnings Payments (CAPS)",
    "slug": "Centralised-Attachment-of-Earnings-Payments-CAPS",
    "lat": "52.2373018",
    "lon": "-0.899965458",
    "number": "NULL",
    "address": "5th Floor!St Katharine's House!21-27 St Katharine's Street",
    "townName": "Northampton",
    "postcode": "NN1 2LH"
  },
  {
    "name": "Chancery Division",
    "slug": "Chancery-Division",
    "lat": "51.51576958",
    "lon": "-0.110316308",
    "number": "NULL",
    "address": "The Rolls Building!7 Rolls Buildings!Fetter Lane",
    "townName": "London",
    "postcode": "EC4A 1NL"
  },
  {
    "name": "Chelmsford County and Family Court",
    "slug": "Chelmsford-County-and-Family-Court",
    "lat": "51.73022729",
    "lon": "0.471206127",
    "number": "NULL",
    "address": "Chelmsford County and Family Court Hearing Centre!Priory Place!New London Road!",
    "townName": "Chelmsford",
    "postcode": "CM2 0PP"
  },
  {
    "name": "Chelmsford Crown Court",
    "slug": "Chelmsford-Crown-Court",
    "lat": "51.74249227",
    "lon": "0.500601895",
    "number": "414",
    "address": "New Street",
    "townName": "Chelmsford",
    "postcode": "CM1 1EL"
  },
  {
    "name": "Chelmsford Magistrates' Court and Family Court",
    "slug": "Chelmsford-Magistrates-Court-and-Family-Court",
    "lat": "51.73590559",
    "lon": "0.473167176",
    "number": "NULL",
    "address": "10 New Street",
    "townName": "Chelmsford",
    "postcode": "CM1 1NT"
  },
  {
    "name": "Cheltenham Magistrates' Court",
    "slug": "Cheltenham-Magistrates-Court",
    "lat": "51.89898182",
    "lon": "-2.083171656",
    "number": "NULL",
    "address": "Cheltenham Courthouse!St Georges Road",
    "townName": "Cheltenham",
    "postcode": "GL50 3PF"
  },
  {
    "name": "Cheshire and Merseyside Central Payment and Enforcement Centre",
    "slug": "Cheshire-and-Merseyside-Central-Payment-and-Enforcement-Centre",
    "lat": "NULL",
    "lon": "NULL",
    "number": "NULL",
    "address": "Cheshire & Merseyside Collections  ! PO Box 326",
    "townName": "Runcorn",
    "postcode": "WA7 9DU"
  },
  {
    "name": "Chester Civil and Family Justice Centre",
    "slug": "Chester-Civil-and-Family-Justice-Centre",
    "lat": "53.18858441",
    "lon": "-2.886985425",
    "number": "NULL",
    "address": "Trident House!Little St John Street",
    "townName": "Chester",
    "postcode": "CH1 1SN"
  },
  {
    "name": "Chester Crown Court",
    "slug": "Chester-Crown-Court",
    "lat": "53.1858877",
    "lon": "-2.891793466",
    "number": "415",
    "address": "The Castle",
    "townName": "Chester",
    "postcode": "CH1 2AN"
  },
  {
    "name": "Chester Magistrates' Court",
    "slug": "Chester-Magistrates-Court",
    "lat": "53.18763675",
    "lon": "-2.893505941",
    "number": "NULL",
    "address": "Grosvenor Street",
    "townName": "Chester",
    "postcode": "CH1 2XA"
  },
  {
    "name": "Chesterfield County Court",
    "slug": "Chesterfield-County-Court",
    "lat": "53.23695969",
    "lon": "-1.423743704",
    "number": "NULL",
    "address": "Chesterfield Justice Centre!Tapton Lane",
    "townName": "Chesterfield",
    "postcode": "S41 7TW"
  },
  {
    "name": "City of London Magistrates' Court",
    "slug": "City-of-London-Magistrates-Court",
    "lat": "51.51311243",
    "lon": "-0.090062019",
    "number": "NULL",
    "address": "1 Queen Victoria Street",
    "townName": "London",
    "postcode": "EC4N 4XY"
  },
  {
    "name": "Clerkenwell and Shoreditch County Court and Family Court",
    "slug": "Clerkenwell-and-Shoreditch-County-Court-and-Family-Court",
    "lat": "51.52465515",
    "lon": "-0.097579785",
    "number": "NULL",
    "address": "The Gee Street Courthouse!29-41 Gee Street",
    "townName": "London",
    "postcode": "EC1V 3RE"
  },
  {
    "name": "Cleveland, Durham, Northumbria and North Yorkshire Central Enforcement Unit",
    "slug": "Cleveland-Durham-Northumbria-and-North-Yorkshire-Central-Enforcement-Unit",
    "lat": "NULL",
    "lon": "NULL",
    "number": "NULL",
    "address": "PO Box 826",
    "townName": "North Shields",
    "postcode": "NE29 1DZ"
  },
  {
    "name": "Colchester Magistrates' Court and Family Court",
    "slug": "Colchester-Magistrates-Court-and-Family-Court",
    "lat": "51.88650877",
    "lon": "0.904373623",
    "number": "NULL",
    "address": "St Botolphs Circus!Magdelen Street",
    "townName": "Colchester",
    "postcode": "CO2 7EF"
  },
  {
    "name": "County Court Business Centre (CCBC)",
    "slug": "County-Court-Business-Centre-CCBC",
    "lat": "NULL",
    "lon": "NULL",
    "number": "NULL",
    "address": "St. Katharine's House!21-27 St. Katharine's Street",
    "townName": "Northampton",
    "postcode": "NN1 2LH"
  },
  {
    "name": "County Court Money Claims Centre (CCMCC)",
    "slug": "County-Court-Money-Claims-Centre-CCMCC",
    "lat": "NULL",
    "lon": "NULL",
    "number": "NULL",
    "address": "County Court Money Claims Centre!PO Box 527",
    "townName": "Salford",
    "postcode": "M5 0BY"
  },
  {
    "name": "Court of Appeal Civil Division",
    "slug": "Court-of-Appeal-Civil-Division",
    "lat": "51.51364538",
    "lon": "-0.113546081",
    "number": "NULL",
    "address": "Room E307!Royal Courts of Justice!Strand",
    "townName": "London",
    "postcode": "WC2A 2LL"
  },
  {
    "name": "Court of Appeal Criminal Division",
    "slug": "Court-of-Appeal-Criminal-Division",
    "lat": "51.51414379",
    "lon": "-0.113741162",
    "number": "NULL",
    "address": "Criminal Appeal Office!The Royal Courts of Justice!Strand",
    "townName": "London",
    "postcode": "WC2A 2LL"
  },
  {
    "name": "Court of Protection",
    "slug": "Court-of-Protection",
    "lat": "51.518436",
    "lon": "-0.114516",
    "number": "5",
    "address": "PO Box 70185!First Avenue House!42-49 High Holborn",
    "townName": "London",
    "postcode": "WC1A 9JA"
  },
  {
    "name": "Coventry Combined Court Centre",
    "slug": "Coventry-Combined-Court-Centre",
    "lat": "52.40558365",
    "lon": "-1.506439638",
    "number": "417",
    "address": "140 Much Park Street",
    "townName": "Coventry",
    "postcode": "CV1 2SN"
  },
  {
    "name": "Coventry Magistrates' Court",
    "slug": "Coventry-Magistrates-Court",
    "lat": "52.40583134",
    "lon": "-1.507627538",
    "number": "NULL",
    "address": "Little Park Street",
    "townName": "Coventry",
    "postcode": "CV1 2SQ"
  },
  {
    "name": "Crawley Magistrates' Court",
    "slug": "Crawley-Magistrates-Court",
    "lat": "51.11736799",
    "lon": "-0.181070089",
    "number": "NULL",
    "address": "The Law Courts!Woodfield Road",
    "townName": "Crawley",
    "postcode": "RH10 8BF"
  },
  {
    "name": "Crewe (South Cheshire) Magistrates' Court",
    "slug": "Crewe-South-Cheshire-Magistrates-Court",
    "lat": "53.09768324",
    "lon": "-2.438754668",
    "number": "NULL",
    "address": "The Law Courts!Civic Centre",
    "townName": "Crewe",
    "postcode": "CW1 2DT"
  },
  {
    "name": "Crewe County Court and Family Court",
    "slug": "Crewe-County-Court-and-Family-Court",
    "lat": "53.09768324",
    "lon": "-2.438754668",
    "number": "NULL",
    "address": "The Law Courts!Civic Centre",
    "townName": "Crewe",
    "postcode": "CW1 2DP"
  },
  {
    "name": "Croydon County Court and Family Court",
    "slug": "Croydon-County-Court-and-Family-Court",
    "lat": "51.37333754",
    "lon": "-0.092149174",
    "number": "NULL",
    "address": "The Law Courts!Altyre Road",
    "townName": "Croydon",
    "postcode": "CR9 5AB"
  },
  {
    "name": "Croydon Crown Court",
    "slug": "Croydon-Crown-Court",
    "lat": "51.37333818",
    "lon": "-0.092148629",
    "number": "418",
    "address": "The Law Courts!Altyre Road",
    "townName": "Croydon",
    "postcode": "CR9 5AB"
  },
  {
    "name": "Croydon Employment Tribunal",
    "slug": "Croydon-Employment-Tribunal",
    "lat": "51.37968126",
    "lon": "-0.104574195",
    "number": "NULL",
    "address": "Montague Court!101 London Road",
    "townName": "Croydon",
    "postcode": "CR0 2RF"
  },
  {
    "name": "Croydon Magistrates' Court",
    "slug": "Croydon-Magistrates-Court",
    "lat": "51.37239619",
    "lon": "-0.093984285",
    "number": "NULL",
    "address": "Barclay Road",
    "townName": "Croydon",
    "postcode": "CR9 3NG"
  },
  {
    "name": "Cwmbran Magistrates' Court",
    "slug": "Cwmbran-Magistrates-Court",
    "lat": "51.65129817",
    "lon": "-3.021274259",
    "number": "NULL",
    "address": "Tudor Road",
    "townName": "Cwmbran",
    "postcode": "NP44 3YA"
  },
  {
    "name": "Darlington County Court and Family Court",
    "slug": "Darlington-County-Court-and-Family-Court",
    "lat": "54.52339498",
    "lon": "-1.559759232",
    "number": "NULL",
    "address": "4 Coniscliffe Road",
    "townName": "Darlington",
    "postcode": "DL3 7RG"
  },
  {
    "name": "Darlington Magistrates' Court and Family Court",
    "slug": "Darlington-Magistrates-Court-and-Family-Court",
    "lat": "54.52400559",
    "lon": "-1.549849208",
    "number": "NULL",
    "address": "Parkgate",
    "townName": "Darlington",
    "postcode": "DL1 1RU"
  },
  {
    "name": "Dartford County Court and Family Court",
    "slug": "Dartford-County-Court-and-Family-Court",
    "lat": "51.44534413",
    "lon": "0.220272137",
    "number": "NULL",
    "address": "Home Gardens",
    "townName": "Dartford",
    "postcode": "DA1 1DX"
  },
  {
    "name": "Derby Combined Court Centre",
    "slug": "Derby-Combined-Court-Centre",
    "lat": "52.92243279",
    "lon": "-1.473068947",
    "number": "419",
    "address": "Morledge",
    "townName": "Derby",
    "postcode": "DE1 2XE"
  },
  {
    "name": "Derby Magistrates' Court",
    "slug": "Derby-Magistrates-Court",
    "lat": "52.92457401",
    "lon": "-1.479587807",
    "number": "NULL",
    "address": "The Court House!St Mary's Gate",
    "townName": "Derby",
    "postcode": "DE1 3JR"
  },
  {
    "name": "Derby Social Security and Child Support Tribunal",
    "slug": "Derby-Social-Security-and-Child-Support-Tribunal",
    "lat": "52.92457401",
    "lon": "-1.479587807",
    "number": "NULL",
    "address": "Derby Justice Centre!St Marys Gate!Derbyshire!",
    "townName": "Derby",
    "postcode": "DE1 3JR"
  },
  {
    "name": "Devon and Cornwall Central Finance Unit",
    "slug": "Devon-and-Cornwall-Central-Finance-Unit",
    "lat": "50.36928735",
    "lon": "-4.139575101",
    "number": "NULL",
    "address": "The Magistrates' Court!St Andrew Street",
    "townName": "Plymouth",
    "postcode": "PL1 2DP"
  },
  {
    "name": "Doncaster Justice Centre North",
    "slug": "Doncaster-Justice-Centre-North",
    "lat": "53.51899037",
    "lon": "-1.12956269",
    "number": "NULL",
    "address": "College Road",
    "townName": "Doncaster",
    "postcode": "DN1 3HS"
  },
  {
    "name": "Doncaster Justice Centre South",
    "slug": "Doncaster-Justice-Centre-South",
    "lat": "53.51946399",
    "lon": "-1.130246544",
    "number": "420",
    "address": "College Road",
    "townName": "Doncaster",
    "postcode": "DN1 3HS"
  },
  {
    "name": "Dudley County Court and Family Court",
    "slug": "Dudley-County-Court-and-Family-Court",
    "lat": "52.50991975",
    "lon": "-2.088007327",
    "number": "NULL",
    "address": "The Inhedge",
    "townName": "Dudley",
    "postcode": "DY1 1RY"
  },
  {
    "name": "Dudley Magistrates' Court",
    "slug": "Dudley-Magistrates-Court",
    "lat": "52.50973202",
    "lon": "-2.087874368",
    "number": "NULL",
    "address": "Dudley Court House!The Inhedge",
    "townName": "Dudley",
    "postcode": "DY1 1RY"
  },
  {
    "name": "Dundee Tribunal Hearing Centre",
    "slug": "Dundee-Tribunal-Hearing-Centre",
    "lat": "56.45582822",
    "lon": "-2.976980392",
    "number": "NULL",
    "address": "Ground Floor!Caledonian House!Greenmarket!",
    "townName": "Dundee",
    "postcode": "DD1 4QB"
  },
  {
    "name": "Durham County Court and Family Court",
    "slug": "Durham-County-Court-and-Family-Court",
    "lat": "54.77273155",
    "lon": "-1.569431515",
    "number": "NULL",
    "address": "Durham Justice Centre!Green Lane!Old Elvet",
    "townName": "Durham",
    "postcode": "DH1 3RG"
  },
  {
    "name": "Durham Crown Court",
    "slug": "Durham-Crown-Court",
    "lat": "54.77408311",
    "lon": "-1.567909292",
    "number": "422",
    "address": "The Law Courts!Old Elvet",
    "townName": "Durham",
    "postcode": "DH1 3HW"
  },
  {
    "name": "Ealing Magistrates' Court",
    "slug": "Ealing-Magistrates-Court",
    "lat": "51.51125382",
    "lon": "-0.323141493",
    "number": "NULL",
    "address": "The Court House!Green Man Lane",
    "townName": "Ealing",
    "postcode": "W13 0SD"
  },
  {
    "name": "East Berkshire Magistrates' Court, Slough",
    "slug": "East-Berkshire-Magistrates-Court-Slough",
    "lat": "51.50740772",
    "lon": "-0.598103716",
    "number": "NULL",
    "address": "Law Courts!Chalvey Park!Off Windsor Road!",
    "townName": "Slough",
    "postcode": "SL1 2HJ"
  },
  {
    "name": "East London Family Court",
    "slug": "East-London-Family-Court",
    "lat": "51.50633464",
    "lon": "-0.026134465",
    "number": "NULL",
    "address": "East London Family Court!6th and 7th Floor, 11 Westferry Circus!(Entrance in Columbus Courtyard)",
    "townName": "London",
    "postcode": "E14 4HD"
  },
  {
    "name": "East London Tribunal Hearing Centre",
    "slug": "East-London-Tribunal-Hearing-Centre",
    "lat": "51.51021908",
    "lon": "-0.004853988",
    "number": "NULL",
    "address": "2nd Floor!Import Building!2 Clove Crescent",
    "townName": "London",
    "postcode": "E14 2BE"
  },
  {
    "name": "Edinburgh Employment Appeal Tribunal",
    "slug": "Edinburgh-Employment-Appeal-Tribunal",
    "lat": "55.94907946",
    "lon": "-3.214564809",
    "number": "NULL",
    "address": "52 Melville Street",
    "townName": "Edinburgh",
    "postcode": "EH3 7HF"
  },
  {
    "name": "Edinburgh Employment Tribunal",
    "slug": "Edinburgh-Employment-Tribunal",
    "lat": "55.94907946",
    "lon": "-3.214564809",
    "number": "NULL",
    "address": "54-56 Melville Street",
    "townName": "Edinburgh",
    "postcode": "EH3 7HF"
  },
  {
    "name": "Edinburgh Social Security and Child Support Tribunal",
    "slug": "Edinburgh-Social-Security-and-Child-Support-Tribunal",
    "lat": "55.93235746",
    "lon": "-3.249592727",
    "number": "NULL",
    "address": "Riverside House!2nd Floor!502 Gorgie Road!",
    "townName": "Edinburgh",
    "postcode": "EH11 3AF"
  },
  {
    "name": "Edinburgh Upper Tribunal (Administrative Appeals Chamber)",
    "slug": "Edinburgh-Upper-Tribunal-Administrative-Appeals-Chamber",
    "lat": "55.95170661",
    "lon": "-3.205070227",
    "number": "NULL",
    "address": "Upper Tribunal (Administrative Appeals Chamber)!George House !126 George Street",
    "townName": "Edinburgh",
    "postcode": "EH2 4HH"
  },
  {
    "name": "Edmonton County Court and Family Court",
    "slug": "Edmonton-County-Court-and-Family-Court",
    "lat": "51.61069989",
    "lon": "-0.065950605",
    "number": "NULL",
    "address": "Court House!59 Fore Street",
    "townName": "Edmonton",
    "postcode": "N18 2TN"
  },
  {
    "name": "Employment Appeal Tribunal (England and Wales)",
    "slug": "Employment-Appeal-Tribunal-England-and-Wales",
    "lat": "NULL",
    "lon": "NULL",
    "number": "NULL",
    "address": "Rolls Building !7 Rolls Buildings !Fetter Lane",
    "townName": "London",
    "postcode": "EC4A 1NL"
  },
  {
    "name": "Enfield Social Security and Child Support Tribunal",
    "slug": "Enfield-Social-Security-and-Child-Support-Tribunal",
    "lat": "51.6494939",
    "lon": "-0.057274499",
    "number": "NULL",
    "address": "288 Southbury Road",
    "townName": "Enfield",
    "postcode": "EN1 1TR"
  },
  {
    "name": "Exeter Combined Court Centre",
    "slug": "Exeter-Combined-Court-Centre",
    "lat": "50.72127298",
    "lon": "-3.525229406",
    "number": "423",
    "address": "Southernhay Gardens",
    "townName": "Exeter",
    "postcode": "EX1 1UH"
  },
  {
    "name": "Exeter Magistrates' Court - North and East Devon",
    "slug": "Exeter-Magistrates-Court-North-and-East-Devon",
    "lat": "50.72413023",
    "lon": "-3.517161481",
    "number": "NULL",
    "address": "The Court House!Heavitree Road",
    "townName": "Exeter",
    "postcode": "EX1 2LS"
  },
  {
    "name": "Family Division",
    "slug": "Family-Division",
    "lat": "51.51414379",
    "lon": "-0.113741162",
    "number": "NULL",
    "address": "1st Mezzanine, Queen’s Building! The Royal Courts of Justice!Strand",
    "townName": "London",
    "postcode": "WC2A 2LL"
  },
  {
    "name": "Field House Tribunal Hearing Centre",
    "slug": "Field-House-Tribunal-Hearing-Centre",
    "lat": "51.51628662",
    "lon": "-0.110035474",
    "number": "NULL",
    "address": "Field House!15-25 Breams Buildings",
    "townName": "London",
    "postcode": "EC4A 1DZ"
  },
  {
    "name": "Folkestone Magistrates' Court",
    "slug": "Folkestone-Magistrates-Court",
    "lat": "51.07884518",
    "lon": "1.169220294",
    "number": "NULL",
    "address": "The Law Courts!Castle Hill Avenue",
    "townName": "Folkestone",
    "postcode": "CT20 2DH"
  },
  {
    "name": "Gangmaster Licensing Appeals (England, Wales and Scotland)",
    "slug": "Gangmaster-Licensing-Appeals-England-Wales-and-Scotland",
    "lat": "53.48337505",
    "lon": "-2.247850312",
    "number": "NULL",
    "address": "Alexandra House!14-22 The Parsonage",
    "townName": "Manchester",
    "postcode": "M3 2JA"
  },
  {
    "name": "Gateshead County Court and Family Court",
    "slug": "Gateshead-County-Court-and-Family-Court",
    "lat": "54.95898196",
    "lon": "-1.600300544",
    "number": "NULL",
    "address": "Gateshead Law Courts!Warwick Street",
    "townName": "Gateshead",
    "postcode": "NE8 1DT"
  },
  {
    "name": "Gateshead Magistrates' Court and Family Court",
    "slug": "Gateshead-Magistrates-Court-and-Family-Court",
    "lat": "54.95898196",
    "lon": "-1.600300544",
    "number": "NULL",
    "address": "Warwick Street",
    "townName": "Gateshead",
    "postcode": "NE8 1DT"
  },
  {
    "name": "General Regulatory Chamber",
    "slug": "General-Regulatory-Chamber",
    "lat": "NULL",
    "lon": "NULL",
    "number": "NULL",
    "address": "PO Box 9300",
    "townName": "Leicester",
    "postcode": "LE1 8DJ"
  },
  {
    "name": "Glasgow Employment and Immigration Tribunals (Eagle Building)",
    "slug": "Glasgow-Employment-and-Immigration-Tribunals-Eagle-Building",
    "lat": "55.86167165",
    "lon": "-4.266288327",
    "number": "NULL",
    "address": "Eagle Building!215 Bothwell Street",
    "townName": "Glasgow",
    "postcode": "G2 7TS"
  },
  {
    "name": "Glasgow Tribunals Centre",
    "slug": "Glasgow-Tribunals-Centre",
    "lat": "55.857311",
    "lon": "-4.262729",
    "number": "NULL",
    "address": "20 York Street",
    "townName": "Glasgow",
    "postcode": "G2 8GT"
  },
  {
    "name": "Gloucester and Cheltenham County  and Family Court",
    "slug": "Gloucester-and-Cheltenham-County-and-Family-Court",
    "lat": "51.86340338",
    "lon": "-2.249396734",
    "number": "NULL",
    "address": "Kimbrose Way",
    "townName": "Gloucester",
    "postcode": "GL1 2DE"
  },
  {
    "name": "Gloucester Crown Court",
    "slug": "Gloucester-Crown-Court",
    "lat": "51.86599305",
    "lon": "-2.249265842",
    "number": "424",
    "address": "Longsmith Street",
    "townName": "Gloucester",
    "postcode": "GL1 2TS"
  },
  {
    "name": "Great Grimsby Combined Court Centre",
    "slug": "Great-Grimsby-Combined-Court-Centre",
    "lat": "53.56485184",
    "lon": "-0.082223335",
    "number": "425",
    "address": "Great Grimsby Combined Court!Town Hall Square",
    "townName": "Grimsby",
    "postcode": "DN31 1HX"
  },
  {
    "name": "Great Yarmouth Magistrates' Court and Family Court",
    "slug": "Great-Yarmouth-Magistrates-Court-and-Family-Court",
    "lat": "52.61317312",
    "lon": "1.724932543",
    "number": "NULL",
    "address": "North Quay",
    "townName": "Great Yarmouth",
    "postcode": "NR30 1PW"
  },
  {
    "name": "Greater Manchester Central Accounts and Enforcement Unit",
    "slug": "Greater-Manchester-Central-Accounts-and-Enforcement-Unit",
    "lat": "53.48012233",
    "lon": "-2.252201156",
    "number": "NULL",
    "address": "Manchester and Salford Magistrates' Court!Crown Square",
    "townName": "Manchester",
    "postcode": "M60 1PR"
  },
  {
    "name": "Grimsby Magistrates' Court and Family Court",
    "slug": "Grimsby-Magistrates-Court-and-Family-Court",
    "lat": "53.56745484",
    "lon": "-0.081410882",
    "number": "NULL",
    "address": "Victoria Street",
    "townName": "Grimsby",
    "postcode": "DN31 1NH"
  },
  {
    "name": "Guildford County Court and Family Court",
    "slug": "Guildford-County-Court-and-Family-Court",
    "lat": "51.23893133",
    "lon": "-0.576926512",
    "number": "NULL",
    "address": "The Law Courts!Mary Road",
    "townName": "Guildford",
    "postcode": "GU1 4PS"
  },
  {
    "name": "Guildford Crown Court",
    "slug": "Guildford-Crown-Court",
    "lat": "51.2387581",
    "lon": "-0.578951733",
    "number": "474",
    "address": "Bedford Road",
    "townName": "Guildford",
    "postcode": "GU1 4ST"
  },
  {
    "name": "Guildford Magistrates' Court and Family Court",
    "slug": "Guildford-Magistrates-Court-and-Family-Court",
    "lat": "51.23893133",
    "lon": "-0.576926512",
    "number": "NULL",
    "address": "Mary Road",
    "townName": "Guildford",
    "postcode": "GU1 4PS"
  },
  {
    "name": "Hamilton Social Security and Child Support Tribunal",
    "slug": "Hamilton-Social-Security-and-Child-Support-Tribunal",
    "lat": "55.7746348",
    "lon": "-4.038593393",
    "number": "NULL",
    "address": "Ground Floor!Block C!Brandon Gate!Leechlea Road",
    "townName": "Hamilton",
    "postcode": "ML3 6AU"
  },
  {
    "name": "Harlow Social Security and Child Support Tribunal",
    "slug": "Harlow-Social-Security-and-Child-Support-Tribunal",
    "lat": "51.76830735",
    "lon": "0.096744368",
    "number": "NULL",
    "address": "The Court House",
    "townName": "Harlow",
    "postcode": "CM20 1HH"
  },
  {
    "name": "Harmondsworth Tribunal Hearing Centre",
    "slug": "Harmondsworth-Tribunal-Hearing-Centre",
    "lat": "51.484605",
    "lon": "-0.483987528",
    "number": "NULL",
    "address": "Colnbrook Bypass",
    "townName": "Harmondsworth",
    "postcode": "UB7 0HD"
  },
  {
    "name": "Harrogate Justice Centre",
    "slug": "Harrogate-Justice-Centre",
    "lat": "53.99025315",
    "lon": "-1.539668622",
    "number": "NULL",
    "address": "Harrogate Justice Centre!The Court House!Victoria Avenue",
    "townName": "Harrogate",
    "postcode": "HG1 1EL"
  },
  {
    "name": "Harrow Crown Court",
    "slug": "Harrow-Crown-Court",
    "lat": "51.59382382",
    "lon": "-0.339809325",
    "number": "468",
    "address": "Hailsham Drive!off Headstone Drive",
    "townName": "Harrow",
    "postcode": "HA1 4TU"
  },
  {
    "name": "Hastings County Court and Family Court",
    "slug": "Hastings-County-Court-and-Family-Court",
    "lat": "50.85936693",
    "lon": "0.566648102",
    "number": "551",
    "address": "Hastings County Court and Family Court Hearing Centre!The Law Courts!Bohemia Road!",
    "townName": "Hastings",
    "postcode": "TN34 1QX"
  },
  {
    "name": "Hastings Magistrates' Court",
    "slug": "Hastings-Magistrates-Court",
    "lat": "50.85936693",
    "lon": "0.566648102",
    "number": "NULL",
    "address": "The Law Courts!Horntye Park!Bohemia Road!",
    "townName": "Hastings",
    "postcode": "TN34 1ND"
  },
  {
    "name": "Hatfield Magistrates' Court",
    "slug": "Hatfield-Magistrates-Court",
    "lat": "51.76590794",
    "lon": "-0.238101979",
    "number": "NULL",
    "address": "Comet Way",
    "townName": "Hatfield",
    "postcode": "AL10 9SJ"
  },
  {
    "name": "Hatton Cross Tribunal Hearing Centre",
    "slug": "Hatton-Cross-Tribunal-Hearing-Centre",
    "lat": "51.45816031",
    "lon": "-0.414073341",
    "number": "NULL",
    "address": "York House, !2-3 Dukes Green Avenue",
    "townName": "Feltham",
    "postcode": "TW14 0LS"
  },
  {
    "name": "Havant Justice Centre",
    "slug": "Havant-Justice-Centre",
    "lat": "NULL",
    "lon": "NULL",
    "number": "NULL",
    "address": "The Court House!Elmleigh Road!Havant",
    "townName": "Portsmouth",
    "postcode": "PO9 2AL"
  },
  {
    "name": "Haverfordwest County Court and Family Court",
    "slug": "Haverfordwest-County-Court-and-Family-Court",
    "lat": "51.80099956",
    "lon": "-4.980593831",
    "number": "NULL",
    "address": "Penffynnon!Hawthorn Rise",
    "townName": "Haverfordwest",
    "postcode": "SA61 2AX"
  },
  {
    "name": "Haverfordwest Magistrates' Court",
    "slug": "Haverfordwest-Magistrates-Court",
    "lat": "51.80099956",
    "lon": "-4.980593831",
    "number": "NULL",
    "address": "Penffynnon!Hawthorn Rise",
    "townName": "Haverfordwest",
    "postcode": "SA61 2AX"
  },
  {
    "name": "Hendon Magistrates' Court",
    "slug": "Hendon-Magistrates-Court",
    "lat": "51.58166953",
    "lon": "-0.245453629",
    "number": "NULL",
    "address": "The Court House!The Hyde",
    "townName": "Hendon",
    "postcode": "NW9 7BY"
  },
  {
    "name": "Hereford County Court and Family Court",
    "slug": "Hereford-County-Court-and-Family-Court",
    "lat": "52.05707996",
    "lon": "-2.71098967",
    "number": "NULL",
    "address": "Hereford Justice Centre!Bath Street",
    "townName": "Hereford",
    "postcode": "HR1 2HE"
  },
  {
    "name": "Hereford Crown Court",
    "slug": "Hereford-Crown-Court",
    "lat": "NULL",
    "lon": "NULL",
    "number": "762",
    "address": "The Shirehall!St Peter's Square",
    "townName": "Hereford",
    "postcode": "HR1 2HY"
  },
  {
    "name": "Hereford Justice Centre",
    "slug": "Hereford-Justice-Centre",
    "lat": "52.05707996",
    "lon": "-2.71098967",
    "number": "NULL",
    "address": "The Court House!Bath Street",
    "townName": "Hereford",
    "postcode": "HR1 2HE"
  },
  {
    "name": "Hertford County Court and Family Court",
    "slug": "Hertford-County-Court-and-Family-Court",
    "lat": "51.796073",
    "lon": "-0.07667869",
    "number": "NULL",
    "address": "Shire Hall!Fore Street",
    "townName": "Hertford",
    "postcode": "SG14 1BY"
  },
  {
    "name": "High Wycombe County Court and Family Court",
    "slug": "High-Wycombe-County-Court-and-Family-Court",
    "lat": "51.6276409",
    "lon": "-0.746142494",
    "number": "NULL",
    "address": "The Law Courts!Ground Floor!Easton Street",
    "townName": "High Wycombe",
    "postcode": "HP11 1LR"
  },
  {
    "name": "High Wycombe Magistrates' Court and Family Court",
    "slug": "High-Wycombe-Magistrates-Court-and-Family-Court",
    "lat": "51.6276409",
    "lon": "-0.746142494",
    "number": "NULL",
    "address": "Law Courts!Easton Street",
    "townName": "High Wycombe",
    "postcode": "HP11 1LR"
  },
  {
    "name": "Highbury Corner Magistrates' Court",
    "slug": "Highbury-Corner-Magistrates-Court",
    "lat": "51.54705735",
    "lon": "-0.105472209",
    "number": "NULL",
    "address": "51 Holloway Road",
    "townName": "London",
    "postcode": "N7 8JA"
  },
  {
    "name": "HMCTS Wales and the South West Enforcement Contact Centre",
    "slug": "HMCTS-Wales-and-the-South-West-Enforcement-Contact-Centre",
    "lat": "NULL",
    "lon": "NULL",
    "number": "NULL",
    "address": "Contact and Compliance Centre!P.O. Box 84",
    "townName": "Cwmbran",
    "postcode": "NP44 1ZP"
  },
  {
    "name": "Horsham County Court and Family Court",
    "slug": "Horsham-County-Court-and-Family-Court",
    "lat": "51.06854908",
    "lon": "-0.322662087",
    "number": "NULL",
    "address": "The Law Courts!Hurst Road",
    "townName": "Horsham",
    "postcode": "RH12 2ET"
  },
  {
    "name": "Horsham Magistrates' Court",
    "slug": "Horsham-Magistrates-Court",
    "lat": "51.06857462",
    "lon": "-0.322561253",
    "number": "NULL",
    "address": "The Law Courts!Hurst Road",
    "townName": "Horsham",
    "postcode": "RH12 2ET"
  },
  {
    "name": "Hove Trial Centre",
    "slug": "Hove-Trial-Centre",
    "lat": "50.82873994",
    "lon": "-0.161568483",
    "number": "1602",
    "address": "The Court House!Lansdowne Road",
    "townName": "Hove",
    "postcode": "BN3 3BN"
  },
  {
    "name": "Huddersfield County Court and Family Court",
    "slug": "Huddersfield-County-Court-and-Family-Court",
    "lat": "53.64213486",
    "lon": "-1.783467154",
    "number": "NULL",
    "address": "Queensgate House!Queensgate",
    "townName": "Huddersfield",
    "postcode": "HD1 2RR"
  },
  {
    "name": "Hull and Holderness Magistrates' Court and Hearing Centre",
    "slug": "Hull-and-Holderness-Magistrates-Court-and-Hearing-Centre",
    "lat": "53.74106277",
    "lon": "-0.333155163",
    "number": "NULL",
    "address": "The Law Courts!Market Place",
    "townName": "Kingston-upon-Hull",
    "postcode": "HU1 1RD"
  },
  {
    "name": "Hull Tribunal Hearing Centre",
    "slug": "Hull-Tribunal-Hearing-Centre",
    "lat": "53.7443943",
    "lon": "-0.330324045",
    "number": "NULL",
    "address": "Wilberforce Court!Alfred Gelder Street",
    "townName": "Hull",
    "postcode": "HU1 1UY"
  },
  {
    "name": "Huntingdon Law Courts",
    "slug": "Huntingdon-Law-Courts",
    "lat": "52.33021386",
    "lon": "-0.185752133",
    "number": "NULL",
    "address": "Walden Rd",
    "townName": "Huntingdon",
    "postcode": "PE29 3DW"
  },
  {
    "name": "Inner London Crown Court",
    "slug": "Inner-London-Crown-Court",
    "lat": "51.49818277",
    "lon": "-0.096535092",
    "number": "440",
    "address": "Sessions House!Newington Causeway",
    "townName": "London",
    "postcode": "SE1 6AZ"
  },
  {
    "name": "Inverness Employment Tribunal",
    "slug": "Inverness-Employment-Tribunal",
    "lat": "57.47967398",
    "lon": "-4.224199877",
    "number": "NULL",
    "address": "Highland Rail House!First Floor!Station Square!Academy Street",
    "townName": "Inverness",
    "postcode": "IV1 1LE"
  },
  {
    "name": "Inverness Social Security and Child Support Tribunal",
    "slug": "Inverness-Social-Security-and-Child-Support-Tribunal",
    "lat": "57.47217741",
    "lon": "-4.18790328",
    "number": "NULL",
    "address": "Ground Floor!Urquhart House!Beechwood Business Park",
    "townName": "Inverness",
    "postcode": "IV2 3BW"
  },
  {
    "name": "Ipswich County Court and Family Hearing Centre",
    "slug": "Ipswich-County-Court-and-Family-Hearing-Centre",
    "lat": "52.05767825",
    "lon": "1.151474645",
    "number": "NULL",
    "address": "8 Arcade Street",
    "townName": "Ipswich",
    "postcode": "IP1 1EJ"
  },
  {
    "name": "Ipswich Crown Court",
    "slug": "Ipswich-Crown-Court",
    "lat": "52.05353578",
    "lon": "1.143596706",
    "number": "426",
    "address": "The Courthouse!1 Russell Road",
    "townName": "Ipswich",
    "postcode": "IP1 2AG"
  },
  {
    "name": "Ipswich District Probate Registry",
    "slug": "Ipswich-District-Probate-Registry",
    "lat": "52.05767825",
    "lon": "1.151474645",
    "number": "NULL",
    "address": "Ground Floor!8 Arcade Street",
    "townName": "Ipswich",
    "postcode": "IP1 1EJ"
  },
  {
    "name": "Ipswich Magistrates' Court",
    "slug": "Ipswich-Magistrates-Court",
    "lat": "52.0568659",
    "lon": "1.148893368",
    "number": "NULL",
    "address": "Elm Street",
    "townName": "Ipswich",
    "postcode": "IP1 2AP"
  },
  {
    "name": "Isle of Wight Combined Court",
    "slug": "Isle-of-Wight-Combined-Court",
    "lat": "50.70120848",
    "lon": "-1.291858299",
    "number": "478",
    "address": "The Law Courts!1 Quay Street",
    "townName": "Newport",
    "postcode": "PO30 5YT"
  },
  {
    "name": "Isleworth Crown Court",
    "slug": "Isleworth-Crown-Court",
    "lat": "51.47921588",
    "lon": "-0.340330607",
    "number": "475",
    "address": "36 Ridgeway Road",
    "townName": "Isleworth",
    "postcode": "TW7 5LP"
  },
  {
    "name": "Kent, Surrey and Sussex Enforcement Business Centre",
    "slug": "Kent-Surrey-and-Sussex-Enforcement-Business-Centre",
    "lat": "NULL",
    "lon": "NULL",
    "number": "NULL",
    "address": "PO Box 1288",
    "townName": "Maidstone",
    "postcode": "ME14 9PG"
  },
  {
    "name": "Kidderminster Magistrates' Court",
    "slug": "Kidderminster-Magistrates-Court",
    "lat": "52.38419718",
    "lon": "-2.240893417",
    "number": "NULL",
    "address": "Comberton Place ",
    "townName": "Kidderminster",
    "postcode": "DY10 1QQ"
  },
  {
    "name": "King's Lynn Crown Court",
    "slug": "King-Lynn-Crown-Court",
    "lat": "52.75171292",
    "lon": "0.393988964",
    "number": "765",
    "address": "The Court House!College Lane",
    "townName": "King's Lynn",
    "postcode": "PE30 1PQ"
  },
  {
    "name": "King's Lynn Magistrates' Court and Family Court",
    "slug": "King-Lynn-Magistrates-Court-and-Family-Court",
    "lat": "52.7517216",
    "lon": "0.394004259",
    "number": "NULL",
    "address": "The Courthouse!College Lane",
    "townName": "King's Lynn",
    "postcode": "PE30 1PQ"
  },
  {
    "name": "Kingston upon Thames County Court and Family Court",
    "slug": "Kingston-upon-Thames-County-Court-and-Family-Court",
    "lat": "51.40797037",
    "lon": "-0.305225131",
    "number": "NULL",
    "address": "Hearing Centre!St James Road",
    "townName": "Kingston-upon-Thames",
    "postcode": "KT1 2AD"
  },
  {
    "name": "Kingston upon Thames Crown Court",
    "slug": "Kingston-upon-Thames-Crown-Court",
    "lat": "51.40589448",
    "lon": "-0.304698002",
    "number": "427",
    "address": "6-8 Penrhyn Road",
    "townName": "Kingston-upon-Thames",
    "postcode": "KT1 2BB"
  },
  {
    "name": "Kingston-upon-Hull Combined Court Centre",
    "slug": "Kingston-upon-Hull-Combined-Court-Centre",
    "lat": "53.7441795",
    "lon": "-0.331682184",
    "number": "403",
    "address": "Lowgate",
    "townName": "Kingston-upon-Hull",
    "postcode": "HU1 2EZ"
  },
  {
    "name": "Kirklees (Huddersfield) Magistrates' Court and Family Court",
    "slug": "Kirklees-Huddersfield-Magistrates-Court-and-Family-Court",
    "lat": "53.64430184",
    "lon": "-1.783924992",
    "number": "NULL",
    "address": "Court House!Civic Centre",
    "townName": "Huddersfield",
    "postcode": "HD1 2NW"
  },
  {
    "name": "Lancaster Courthouse",
    "slug": "Lancaster-Courthouse",
    "lat": "54.04652172",
    "lon": "-2.797380634",
    "number": "NULL",
    "address": "George Street",
    "townName": "Lancaster",
    "postcode": "LA1 1XZ"
  },
  {
    "name": "Lancaster Crown Court",
    "slug": "Lancaster-Crown-Court",
    "lat": "54.04997696",
    "lon": "-2.806229331",
    "number": "409",
    "address": "The Castle",
    "townName": "Lancaster",
    "postcode": "LA1 1YJ"
  },
  {
    "name": "Land Registration",
    "slug": "Land-Registration",
    "lat": "NULL",
    "lon": "NULL",
    "number": "NULL",
    "address": "3rd Floor!10 Alfred Place",
    "townName": "London",
    "postcode": "WC1E 7LR"
  },
  {
    "name": "Lavender Hill Magistrates' Court",
    "slug": "Lavender-Hill-Magistrates-Court",
    "lat": "51.46461257",
    "lon": "-0.16247338",
    "number": "NULL",
    "address": "176a Lavender Hill",
    "townName": "Battersea",
    "postcode": "SW11 1JU"
  },
  {
    "name": "Leamington Spa Magistrates' Court",
    "slug": "Leamington-Spa-Magistrates-Court",
    "lat": "52.2888311",
    "lon": "-1.533936266",
    "number": "NULL",
    "address": "Warwickshire Justice Centre!Newbold Terrace",
    "townName": "Leamington Spa",
    "postcode": "CV32 4EL"
  },
  {
    "name": "Leeds Combined Court Centre",
    "slug": "Leeds-Combined-Court-Centre",
    "lat": "53.80037566",
    "lon": "-1.551754992",
    "number": "NULL",
    "address": "The Courthouse!1 Oxford Row",
    "townName": "Leeds",
    "postcode": "LS1 3BG"
  },
  {
    "name": "Leeds District Probate Registry",
    "slug": "Leeds-District-Probate-Registry",
    "lat": "53.79710398",
    "lon": "-1.551395015",
    "number": "NULL",
    "address": "York House!31 York Place",
    "townName": "Leeds",
    "postcode": "LS1 2ED"
  },
  {
    "name": "Leeds Employment Tribunal",
    "slug": "Leeds-Employment-Tribunal",
    "lat": "53.79687322",
    "lon": "-1.545355355",
    "number": "NULL",
    "address": "4th Floor!City Exchange!11 Albion Street!",
    "townName": "Leeds",
    "postcode": "LS1 5ES"
  },
  {
    "name": "Leeds Magistrates' Court and Family Court",
    "slug": "Leeds-Magistrates-Court-and-Family-Court",
    "lat": "53.80100893",
    "lon": "-1.552856602",
    "number": "NULL",
    "address": "Westgate",
    "townName": "Leeds",
    "postcode": "LS1 3BY"
  },
  {
    "name": "Leeds Social Security and Child Support Tribunal",
    "slug": "Leeds-Social-Security-and-Child-Support-Tribunal",
    "lat": "53.79708549",
    "lon": "-1.551607877",
    "number": "NULL",
    "address": "York House!31 York Place",
    "townName": "Leeds",
    "postcode": "LS1 2ED"
  },
  {
    "name": "Leicester County Court and Family Court",
    "slug": "Leicester-County-Court-and-Family-Court",
    "lat": "52.62991068",
    "lon": "-1.127374126",
    "number": "NULL",
    "address": "90 Wellington Street",
    "townName": "Leicester",
    "postcode": "LE1 6HG"
  },
  {
    "name": "Leicester Crown Court",
    "slug": "Leicester-Crown-Court",
    "lat": "52.62991068",
    "lon": "-1.127374126",
    "number": "430",
    "address": "90 Wellington Street",
    "townName": "Leicester",
    "postcode": "LE1 6HG"
  },
  {
    "name": "Leicester Magistrates' Court",
    "slug": "Leicester-Magistrates-Court",
    "lat": "52.63224625",
    "lon": "-1.134345846",
    "number": "NULL",
    "address": "15 Pocklingtons Walk",
    "townName": "Leicester",
    "postcode": "LE1 6BT"
  },
  {
    "name": "Leicester Tribunal Hearing Centre",
    "slug": "Leicester-Tribunal-Hearing-Centre",
    "lat": "52.6300669",
    "lon": "-1.130281667",
    "number": "NULL",
    "address": "Kings Court!5a New Walk",
    "townName": "Leicester",
    "postcode": "LE1 6TE"
  },
  {
    "name": "Lewes Combined Court Centre",
    "slug": "Lewes-Combined-Court-Centre",
    "lat": "50.87308589",
    "lon": "0.009744786",
    "number": "431",
    "address": "The Law Courts!High Street",
    "townName": "Lewes",
    "postcode": "BN7 1YB"
  },
  {
    "name": "Leyland Family Hearing Centre",
    "slug": "Leyland-Family-Hearing-Centre",
    "lat": "53.69046522",
    "lon": "-2.699834899",
    "number": "NULL",
    "address": "Lancastergate",
    "townName": "Leyland",
    "postcode": "PR25 2EX"
  },
  {
    "name": "Lincoln County Court and Family Court",
    "slug": "Lincoln-County-Court-and-Family-Court",
    "lat": "53.22459221",
    "lon": "-0.542039908",
    "number": "NULL",
    "address": "360 High Street",
    "townName": "Lincoln",
    "postcode": "LN5 7PS"
  },
  {
    "name": "Lincoln Crown Court",
    "slug": "Lincoln-Crown-Court",
    "lat": "53.23522326",
    "lon": "-0.541738652",
    "number": "432",
    "address": "The Castle!Castle Hill",
    "townName": "Lincoln",
    "postcode": "LN1 3GA"
  },
  {
    "name": "Lincoln Magistrates' Court",
    "slug": "Lincoln-Magistrates-Court",
    "lat": "53.22459221",
    "lon": "-0.542039908",
    "number": "NULL",
    "address": "The Court House!358 High Street",
    "townName": "Lincoln",
    "postcode": "LN5 7QA"
  },
  {
    "name": "Liverpool & Knowsley Magistrates' Court",
    "slug": "Liverpool-&-Knowsley-Magistrates-Court",
    "lat": "53.40416907",
    "lon": "-2.989777782",
    "number": "NULL",
    "address": "The Queen Elizabeth II Law Courts!Derby Square",
    "townName": "Liverpool",
    "postcode": "L2 1XA"
  },
  {
    "name": "Liverpool Civil and Family Court",
    "slug": "Liverpool-Civil-and-Family-Court",
    "lat": "53.40948475",
    "lon": "-2.989389728",
    "number": "NULL",
    "address": "35 Vernon Street",
    "townName": "Liverpool",
    "postcode": "L2 2BX"
  },
  {
    "name": "Liverpool Crown Court",
    "slug": "Liverpool-Crown-Court",
    "lat": "53.40416907",
    "lon": "-2.989777782",
    "number": "433",
    "address": "The Queen Elizabeth II Law Courts!Derby Square",
    "townName": "Liverpool",
    "postcode": "L2 1XA"
  },
  {
    "name": "Liverpool District Probate Registry",
    "slug": "Liverpool-District-Probate-Registry",
    "lat": "53.40417027",
    "lon": "-2.989778078",
    "number": "NULL",
    "address": "Queen Elizabeth II Law Courts!Derby Square",
    "townName": "Liverpool",
    "postcode": "L2 1XA"
  },
  {
    "name": "Liverpool Social Security and Child Support Tribunal",
    "slug": "Liverpool-Social-Security-and-Child-Support-Tribunal",
    "lat": "NULL",
    "lon": "NULL",
    "number": "NULL",
    "address": "36 Dale Street",
    "townName": "Liverpool",
    "postcode": "L2 5UZ"
  },
  {
    "name": "Liverpool Youth Court",
    "slug": "Liverpool-Youth-Court",
    "lat": "53.40406197",
    "lon": "-2.989685044",
    "number": "NULL",
    "address": "The Queen Elizabeth II Law Courts!Derby Square",
    "townName": "Liverpool",
    "postcode": "L2 1XA"
  },
  {
    "name": "Llandrindod Wells Magistrates' and Family Court",
    "slug": "Llandrindod-Wells-Magistrates-and-Family-Court",
    "lat": "52.25175419",
    "lon": "-3.369819335",
    "number": "NULL",
    "address": "Noyadd Parks",
    "townName": "LLandrindod Wells",
    "postcode": "LD1 5DF"
  },
  {
    "name": "Llandudno Magistrates' Court",
    "slug": "Llandudno-Magistrates-Court",
    "lat": "53.32018051",
    "lon": "-3.823291339",
    "number": "0",
    "address": "The Court House!Conwy Road",
    "townName": "Llandudno",
    "postcode": "LL30 1GA"
  },
  {
    "name": "Llanelli Law Courts",
    "slug": "Llanelli-Law-Courts",
    "lat": "51.68210437",
    "lon": "-4.16314253",
    "number": "0",
    "address": "Town Hall Square",
    "townName": "Llanelli",
    "postcode": "SA15 3AW"
  },
  {
    "name": "London (South) Employment Tribunal",
    "slug": "London-South-Employment-Tribunal",
    "lat": "51.37971767",
    "lon": "-0.104601431",
    "number": "NULL",
    "address": "Montague Court !101 London Road !West Croydon !",
    "townName": "London",
    "postcode": "CR0 2RF"
  },
  {
    "name": "London Circuit Commercial Court",
    "slug": "London-Circuit-Commercial-Court",
    "lat": "51.51576958",
    "lon": "-0.110316308",
    "number": "NULL",
    "address": "Rolls Building! 7 Rolls Buildings! Fetter Lane",
    "townName": "London",
    "postcode": "EC4A 1NL"
  },
  {
    "name": "London Collection and Compliance Centre",
    "slug": "London-Collection-and-Compliance-Centre",
    "lat": "NULL",
    "lon": "NULL",
    "number": "NULL",
    "address": "P.O. Box 75667",
    "townName": "London",
    "postcode": "WC1A 9QD"
  },
  {
    "name": "London Probate Department",
    "slug": "London-Probate-Department",
    "lat": "51.518436",
    "lon": "-0.114515648",
    "number": "NULL",
    "address": "42-49 High Holborn!First Avenue House",
    "townName": "Holborn",
    "postcode": "WC1V 6NP"
  },
  {
    "name": "Loughborough Magistrates' Court",
    "slug": "Loughborough-Magistrates-Court",
    "lat": "52.77219887",
    "lon": "-1.202189608",
    "number": "NULL",
    "address": "60 Pinfold Gate ",
    "townName": "Loughborough",
    "postcode": "LE11 1AZ"
  },
  {
    "name": "Luton and South Bedfordshire Magistrates' Court and Family Court",
    "slug": "Luton-and-South-Bedfordshire-Magistrates-Court-and-Family-Court",
    "lat": "51.87823302",
    "lon": "-0.420285203",
    "number": "NULL",
    "address": "Stuart Street",
    "townName": "Luton",
    "postcode": "LU1 5BL"
  },
  {
    "name": "Luton Crown Court",
    "slug": "Luton-Crown-Court",
    "lat": "51.87802633",
    "lon": "-0.41427787",
    "number": "769",
    "address": "7 George Street",
    "townName": "Luton",
    "postcode": "LU1 2AA"
  },
  {
    "name": "Luton Justice Centre",
    "slug": "Luton-Justice-Centre",
    "lat": "51.87945373",
    "lon": "-0.412774807",
    "number": "NULL",
    "address": "Luton Justice Centre !Floors 4 & 5, Arndale House!The Mall",
    "townName": "Luton",
    "postcode": "LU1 2LJ"
  },
  {
    "name": "Maidstone Combined Court Centre",
    "slug": "Maidstone-Combined-Court-Centre",
    "lat": "51.27098647",
    "lon": "0.518683775",
    "number": "434",
    "address": "The Law Courts!Barker Road",
    "townName": "Maidstone",
    "postcode": "ME16 8EQ"
  },
  {
    "name": "Maidstone Magistrates' Court",
    "slug": "Maidstone-Magistrates-Court",
    "lat": "51.27141744",
    "lon": "0.523309707",
    "number": "NULL",
    "address": "The Courthouse!Palace Avenue",
    "townName": "Maidstone",
    "postcode": "ME15 6LL"
  },
  {
    "name": "Maintenance Enforcement Business Centre (England)",
    "slug": "Maintenance-Enforcement-Business-Centre-England",
    "lat": "NULL",
    "lon": "NULL",
    "number": "NULL",
    "address": "Triton House!St. Andrews Street North",
    "townName": "Bury St Edmunds",
    "postcode": "IP33 1TR"
  },
  {
    "name": "Maintenance Enforcement Business Centre (Wales)",
    "slug": "Maintenance-Enforcement-Business-Centre-Wales",
    "lat": "NULL",
    "lon": "NULL",
    "number": "NULL",
    "address": "Port Talbot Justice Centre!Harbourside Road",
    "townName": "Port Talbot",
    "postcode": "SA13 1SB"
  },
  {
    "name": "Maintenance Enforcement Centre (London)",
    "slug": "Maintenance-Enforcement-Centre-London",
    "lat": "NULL",
    "lon": "NULL",
    "number": "NULL",
    "address": "Central Family Court!First Avenue House!42-49 High Holborn!",
    "townName": "London",
    "postcode": "WC1V 6NP"
  },
  {
    "name": "Manchester Civil Justice Centre (Civil and Family Courts)",
    "slug": "Manchester-Civil-Justice-Centre-Civil-and-Family-Courts",
    "lat": "53.48090211",
    "lon": "-2.252672837",
    "number": "NULL",
    "address": "1 Bridge Street West",
    "townName": "Manchester",
    "postcode": "M60 9DJ"
  },
  {
    "name": "Manchester Crown Court (Crown Square)",
    "slug": "Manchester-Crown-Court-Crown-Square",
    "lat": "53.48012233",
    "lon": "-2.252201156",
    "number": "435",
    "address": "Courts of Justice!Crown Square",
    "townName": "Manchester",
    "postcode": "M3 3FL"
  },
  {
    "name": "Manchester Crown Court (Minshull St)",
    "slug": "Manchester-Crown-Court-Minshull-St",
    "lat": "53.47867278",
    "lon": "-2.235166099",
    "number": "436",
    "address": "The Court House!Aytoun Street",
    "townName": "Manchester",
    "postcode": "M1 3FS"
  },
  {
    "name": "Manchester District Probate Registry",
    "slug": "Manchester-District-Probate-Registry",
    "lat": "53.48090333",
    "lon": "-2.252672913",
    "number": "NULL",
    "address": "Manchester Civil Justice Centre!Ground Floor!1 Bridge Street West!P.O. BOX 4240",
    "townName": "Manchester",
    "postcode": "M60 9DJ"
  },
  {
    "name": "Manchester Employment Tribunal",
    "slug": "Manchester-Employment-Tribunal",
    "lat": "53.482953",
    "lon": "-2.248295",
    "number": "NULL",
    "address": "Alexandra House!14-22 The Parsonage",
    "townName": "Manchester",
    "postcode": "M3 2JA"
  },
  {
    "name": "Manchester Magistrates' Court",
    "slug": "Manchester-Magistrates-Court",
    "lat": "53.48011212",
    "lon": "-2.252201028",
    "number": "NULL",
    "address": "Crown Square",
    "townName": "Manchester",
    "postcode": "M60 1PR"
  },
  {
    "name": "Manchester Tribunal Hearing Centre",
    "slug": "Manchester-Tribunal-Hearing-Centre",
    "lat": "53.48048062",
    "lon": "-2.239108916",
    "number": "NULL",
    "address": "1st Floor !Piccadilly Exchange!2 Piccadilly Plaza!Mosley Street",
    "townName": "Manchester",
    "postcode": "M1 4AH"
  },
  {
    "name": "Mansfield Magistrates' and County Court",
    "slug": "Mansfield-Magistrates-and-County-Court",
    "lat": "53.1487095",
    "lon": "-1.205622661",
    "number": "NULL",
    "address": "Rosemary Street",
    "townName": "Mansfield",
    "postcode": "NG19 6EE"
  },
  {
    "name": "Margate Magistrates' Court",
    "slug": "Margate-Magistrates-Court",
    "lat": "51.38756402",
    "lon": "1.381807033",
    "number": "NULL",
    "address": "The Courthouse!Cecil Square",
    "townName": "Margate",
    "postcode": "CT9 1RL"
  },
  {
    "name": "Mayor's and City of London Court",
    "slug": "Mayor-and-City-of-London-Court",
    "lat": "51.51529145",
    "lon": "-0.091340084",
    "number": "NULL",
    "address": "Guildhall Buildings!Basinghall Street",
    "townName": "London",
    "postcode": "EC2V 5AR"
  },
  {
    "name": "Medway County Court and Family Court",
    "slug": "Medway-County-Court-and-Family-Court",
    "lat": "51.38402664",
    "lon": "0.519554764",
    "number": "NULL",
    "address": "Anchorage House!47-67 High Street",
    "townName": "Chatham",
    "postcode": "ME4 4DW"
  },
  {
    "name": "Medway Magistrates' Court and Family Court",
    "slug": "Medway-Magistrates-Court-and-Family-Court",
    "lat": "51.38412911",
    "lon": "0.526904903",
    "number": "NULL",
    "address": "The Court House!The Brook",
    "townName": "Chatham",
    "postcode": "ME4 4JZ"
  },
  {
    "name": "Mental Health Tribunal",
    "slug": "Mental-Health-Tribunal",
    "lat": "NULL",
    "lon": "NULL",
    "number": "NULL",
    "address": "PO BOX 8793 !5th Floor",
    "townName": "Leicester",
    "postcode": "LE1 8BN"
  },
  {
    "name": "Merthyr Tydfil Combined Court Centre",
    "slug": "Merthyr-Tydfil-Combined-Court-Centre",
    "lat": "51.74755817",
    "lon": "-3.380497626",
    "number": "437",
    "address": "The Law Courts!Glebeland Place",
    "townName": "Merthyr Tydfil",
    "postcode": "CF47 8BH"
  },
  {
    "name": "Mid and South East Northumberland Law Courts",
    "slug": "Mid-and-South-East-Northumberland-Law-Courts",
    "lat": "55.13237643",
    "lon": "-1.594101342",
    "number": "NULL",
    "address": "The Law Courts",
    "townName": "Bedlington",
    "postcode": "NE22 7LX"
  },
  {
    "name": "Middlesbrough County Court at Teesside Combined Court",
    "slug": "Middlesbrough-County-Court-at-Teesside-Combined-Court",
    "lat": "54.57520892",
    "lon": "-1.23123218",
    "number": "NULL",
    "address": "The Law Courts!Centre Square",
    "townName": "Middlesbrough",
    "postcode": "TS1 2AE"
  },
  {
    "name": "Midlands (East)Employment Tribunal",
    "slug": "Midlands-EastEmployment-Tribunal",
    "lat": "52.94728285",
    "lon": "-1.149354177",
    "number": "NULL",
    "address": "Nottingham Justice Centre!Carrington Street",
    "townName": "Nottingham",
    "postcode": "NG2 1EE"
  },
  {
    "name": "Midlands (West) Employment Tribunal",
    "slug": "Midlands-West-Employment-Tribunal",
    "lat": "52.47622408",
    "lon": "-1.898515826",
    "number": "NULL",
    "address": "Centre City Tower!13th Floor!5-7 Hill Street!",
    "townName": "Birmingham",
    "postcode": "B5 4UU"
  },
  {
    "name": "Midlands and Wales Regional Fixed Penalty Office",
    "slug": "Midlands-and-Wales-Regional-Fixed-Penalty-Office",
    "lat": "NULL",
    "lon": "NULL",
    "number": "NULL",
    "address": "Midlands Regional Fixed Penalty Office!PO BOX 10066",
    "townName": "Loughborough",
    "postcode": "LE11 9HB"
  },
  {
    "name": "Milton Keynes County Court and Family Court",
    "slug": "Milton-Keynes-County-Court-and-Family-Court",
    "lat": "52.04119892",
    "lon": "-0.765354627",
    "number": "NULL",
    "address": "351 Silbury Boulevard!Witan Gate East",
    "townName": "Central Milton Keynes",
    "postcode": "MK9 2DT"
  },
  {
    "name": "Milton Keynes Magistrates' Court and Family Court",
    "slug": "Milton-Keynes-Magistrates-Court-and-Family-Court",
    "lat": "52.0410379",
    "lon": "-0.766292199",
    "number": "NULL",
    "address": "301 Silbury Boulevard!Witan Gate East",
    "townName": "Central Milton Keynes",
    "postcode": "MK9 2AJ"
  },
  {
    "name": "Mold Justice Centre",
    "slug": "Mold-Justice-Centre",
    "lat": "53.17699267",
    "lon": "-3.13717025",
    "number": "769",
    "address": "Law Courts",
    "townName": "Mold",
    "postcode": "CH7 1AE"
  },
  {
    "name": "Money Claim Online (MCOL)",
    "slug": "Money-Claim-Online-MCOL",
    "lat": "52.2373018",
    "lon": "-0.899965458",
    "number": "NULL",
    "address": "4th Floor!St Katharine's House!21-27 St Katharine's Street",
    "townName": "Northampton",
    "postcode": "NN1 2LH"
  },
  {
    "name": "Newcastle Civil & Family Courts and Tribunals Centre",
    "slug": "Newcastle-Civil-&-Family-Courts-and-Tribunals-Centre",
    "lat": "54.978706",
    "lon": "-1.609995",
    "number": "NULL",
    "address": "Newcastle Civil & Family Courts and Tribunals Centre!Barras Bridge",
    "townName": "Newcastle upon Tyne",
    "postcode": "NE1 8QF"
  },
  {
    "name": "Newcastle District Probate Registry",
    "slug": "Newcastle-District-Probate-Registry",
    "lat": "54.96948495",
    "lon": "-1.62218998",
    "number": "NULL",
    "address": "1 Waterloo Square",
    "townName": "Newcastle-upon-Tyne",
    "postcode": "NE1 4DR"
  },
  {
    "name": "Newcastle Moot Hall",
    "slug": "Newcastle-Moot-Hall",
    "lat": "54.96880957",
    "lon": "-1.610340563",
    "number": "NULL",
    "address": "The Moot Hall!CastleGarth",
    "townName": "Newcastle-upon-Tyne",
    "postcode": "NE1 1RQ"
  },
  {
    "name": "Newcastle upon Tyne Combined Court Centre",
    "slug": "Newcastle-upon-Tyne-Combined-Court-Centre",
    "lat": "54.96972263",
    "lon": "-1.603677361",
    "number": "439",
    "address": "The Law Courts!The Quayside",
    "townName": "Newcastle-upon-Tyne",
    "postcode": "NE1 3LA"
  },
  {
    "name": "Newcastle upon Tyne Magistrates' Court",
    "slug": "Newcastle-upon-Tyne-Magistrates-Court",
    "lat": "54.97323886",
    "lon": "-1.610047759",
    "number": "NULL",
    "address": "Market Street",
    "townName": "Newcastle-upon-Tyne",
    "postcode": "NE1 6XA"
  },
  {
    "name": "Newport (South Wales) County Court and Family Court",
    "slug": "Newport-South-Wales-County-Court-and-Family-Court",
    "lat": "51.59094173",
    "lon": "-2.992492531",
    "number": "NULL",
    "address": "5th Floor!Clarence House!Clarence Place",
    "townName": "Newport",
    "postcode": "NP19 7AA"
  },
  {
    "name": "Newport (South Wales) Crown Court",
    "slug": "Newport-South-Wales-Crown-Court",
    "lat": "51.5883811",
    "lon": "-3.004937068",
    "number": "441",
    "address": "The Law Courts!Faulkner Road",
    "townName": "Newport",
    "postcode": "NP20 4PR"
  },
  {
    "name": "Newport (South Wales) Immigration and Asylum Tribunal",
    "slug": "Newport-South-Wales-Immigration-and-Asylum-Tribunal",
    "lat": "51.60308027",
    "lon": "-2.919665967",
    "number": "NULL",
    "address": "Columbus House!Langstone Business Park!Chepstow Road",
    "townName": "Newport",
    "postcode": "NP18 2LX"
  },
  {
    "name": "Newport (South Wales) Magistrates' Court",
    "slug": "Newport-South-Wales-Magistrates-Court",
    "lat": "51.58241457",
    "lon": "-2.986461452",
    "number": "NULL",
    "address": "Usk Way",
    "townName": "Newport",
    "postcode": "NP20 2GE"
  },
  {
    "name": "Newport (South Wales) Regional Divorce Centre",
    "slug": "Newport-South-Wales-Regional-Divorce-Centre",
    "lat": "NULL",
    "lon": "NULL",
    "number": "NULL",
    "address": "Newport (Gwent) Civil and Family Court !5th Floor!Clarence House!Clarence Place",
    "townName": "Newport",
    "postcode": "NP19 7AA"
  },
  {
    "name": "Newton Abbot Magistrates' Court",
    "slug": "Newton-Abbot-Magistrates-Court",
    "lat": "50.52769312",
    "lon": "-3.613000268",
    "number": "NULL",
    "address": "The Court House!Newfoundland Way",
    "townName": "Newton Abbot",
    "postcode": "TQ12 1LA"
  },
  {
    "name": "Newton Aycliffe Magistrates' Court",
    "slug": "Newton-Aycliffe-Magistrates-Court",
    "lat": "54.62036293",
    "lon": "-1.569631616",
    "number": "NULL",
    "address": "Central Avenue",
    "townName": "Newton Aycliffe",
    "postcode": "DL5 5RT"
  },
  {
    "name": "North Regional Fixed Penalty Office",
    "slug": "North-Regional-Fixed-Penalty-Office",
    "lat": "51.59181098",
    "lon": "-3.785143662",
    "number": "NULL",
    "address": "North and Wales Fixed Penalty Office!PO Box 223!Morley",
    "townName": "Leeds",
    "postcode": "LS27 1DN"
  },
  {
    "name": "North Shields County Court and Family Court",
    "slug": "North-Shields-County-Court-and-Family-Court",
    "lat": "54.99757293",
    "lon": "-1.459390472",
    "number": "NULL",
    "address": "Kings Court!Earl Grey Way!Royal Quays",
    "townName": "North Shields",
    "postcode": "NE29 6AR"
  },
  {
    "name": "North Somerset Magistrates' Court",
    "slug": "North-Somerset-Magistrates-Court",
    "lat": "51.36071336",
    "lon": "-2.9050786",
    "number": "NULL",
    "address": "North Somerset Courthouse!The Hedges!St Georges",
    "townName": "Weston-Super-Mare",
    "postcode": "BS22 7BB"
  },
  {
    "name": "North Staffordshire Justice Centre",
    "slug": "North-Staffordshire-Justice-Centre",
    "lat": "53.01330527",
    "lon": "-2.225232769",
    "number": "NULL",
    "address": "The Court House!Ryecroft",
    "townName": "Newcastle-under-Lyme",
    "postcode": "ST5 2AA"
  },
  {
    "name": "North Tyneside Magistrates' Court",
    "slug": "North-Tyneside-Magistrates-Court",
    "lat": "55.01142916",
    "lon": "-1.443301453",
    "number": "NULL",
    "address": "The Courthouse!Tynemouth Road",
    "townName": "North Shields",
    "postcode": "NE30 1AG"
  },
  {
    "name": "North West Regional Divorce Centre",
    "slug": "North-West-Regional-Divorce-Centre",
    "lat": "53.40948475",
    "lon": "-2.989389728",
    "number": "NULL",
    "address": "North West Regional Divorce Centre!35 Vernon Street",
    "townName": "Liverpool",
    "postcode": "L2 2BX"
  },
  {
    "name": "North Yorkshire Magistrates' Courts Central Finance Unit",
    "slug": "North-Yorkshire-Magistrates-Courts-Central-Finance-Unit",
    "lat": "NULL",
    "lon": "NULL",
    "number": "NULL",
    "address": "P.O. Box 826!North Shields",
    "townName": "North Shields",
    "postcode": "NE29 1DZ"
  },
  {
    "name": "Northampton Crown, County and Family Court",
    "slug": "Northampton-Crown-County-and-Family-Court",
    "lat": "52.24080303",
    "lon": "-0.893639925",
    "number": "442",
    "address": "85-87 Lady's Lane",
    "townName": "Northampton",
    "postcode": "NN1 3HQ"
  },
  {
    "name": "Northampton Magistrates' Court",
    "slug": "Northampton-Magistrates-Court",
    "lat": "52.24129848",
    "lon": "-0.895663351",
    "number": "NULL",
    "address": "Campbell Square",
    "townName": "Northampton",
    "postcode": "NN1 3EB"
  },
  {
    "name": "Northampton Social Security and Child Support Tribunal",
    "slug": "Northampton-Social-Security-and-Child-Support-Tribunal",
    "lat": "52.23730268",
    "lon": "-0.899965137",
    "number": "NULL",
    "address": "Ground Floor!St Katharine's House!St Katharine's Street",
    "townName": "Northampton",
    "postcode": "NN1 2LX"
  },
  {
    "name": "Norwich Combined Court Centre",
    "slug": "Norwich-Combined-Court-Centre",
    "lat": "52.63414848",
    "lon": "1.30103606",
    "number": "443",
    "address": "The Law Courts!Bishopgate",
    "townName": "Norwich",
    "postcode": "NR3 1UR"
  },
  {
    "name": "Norwich Magistrates' Court and Family Court",
    "slug": "Norwich-Magistrates-Court-and-Family-Court",
    "lat": "52.63414848",
    "lon": "1.30103606",
    "number": "NULL",
    "address": "Bishopgate",
    "townName": "Norwich",
    "postcode": "NR3 1UP"
  },
  {
    "name": "Norwich Social Security and Child Support Tribunal",
    "slug": "Norwich-Social-Security-and-Child-Support-Tribunal",
    "lat": "52.622281",
    "lon": "1.295415",
    "number": "NULL",
    "address": "The Old Bakery!115 Queens Road",
    "townName": "Norwich",
    "postcode": "NR1 3PL"
  },
  {
    "name": "Nottingham County Court and Family Court",
    "slug": "Nottingham-County-Court-and-Family-Court",
    "lat": "52.94853998",
    "lon": "-1.146650555",
    "number": "NULL",
    "address": "60 Canal Street",
    "townName": "Nottingham",
    "postcode": "NG1 7EJ"
  },
  {
    "name": "Nottingham Crown Court",
    "slug": "Nottingham-Crown-Court",
    "lat": "52.94853998",
    "lon": "-1.146650555",
    "number": "444",
    "address": "60 Canal Street",
    "townName": "Nottingham",
    "postcode": "NG1 7EL"
  },
  {
    "name": "Nottingham Magistrates' Court",
    "slug": "Nottingham-Magistrates-Court",
    "lat": "52.94718429",
    "lon": "-1.149400758",
    "number": "NULL",
    "address": "Nottingham Justice Centre!Carrington Street",
    "townName": "Nottingham",
    "postcode": "NG2 1EE"
  },
  {
    "name": "Nottingham Social Security and Child Support Tribunal",
    "slug": "Nottingham-Social-Security-and-Child-Support-Tribunal",
    "lat": "52.947708",
    "lon": "-1.147561",
    "number": "NULL",
    "address": "50 Carrington Street",
    "townName": "Nottingham",
    "postcode": "NG1 7FG"
  },
  {
    "name": "Nuneaton County Court",
    "slug": "Nuneaton-County-Court",
    "lat": "52.52295589",
    "lon": "-1.462590263",
    "number": "NULL",
    "address": "Warwickshire Justice Centre!Vicarage Street",
    "townName": "Nuneaton",
    "postcode": "CV11 4JU"
  },
  {
    "name": "Nuneaton Magistrates' Court",
    "slug": "Nuneaton-Magistrates-Court",
    "lat": "52.52295515",
    "lon": "-1.462428147",
    "number": "NULL",
    "address": "Warwickshire Justice Centre!Vicarage Street",
    "townName": "Nuneaton",
    "postcode": "CV11 4JU"
  },
  {
    "name": "Oxford and Southern Oxfordshire Magistrates' Court",
    "slug": "Oxford-and-Southern-Oxfordshire-Magistrates-Court",
    "lat": "51.748663",
    "lon": "-1.258118",
    "number": "NULL",
    "address": "The Court House!Speedwell Street",
    "townName": "Oxford",
    "postcode": "OX1 1RZ"
  },
  {
    "name": "Oxford Combined Court Centre",
    "slug": "Oxford-Combined-Court-Centre",
    "lat": "51.74817045",
    "lon": "-1.257072127",
    "number": "445",
    "address": "St Aldates",
    "townName": "Oxford",
    "postcode": "OX1 1TL"
  },
  {
    "name": "Oxford District Probate Registry",
    "slug": "Oxford-District-Probate-Registry",
    "lat": "51.74817045",
    "lon": "-1.257072127",
    "number": "NULL",
    "address": "Combined Court Building!St Aldates",
    "townName": "Oxford",
    "postcode": "OX1 1LY"
  },
  {
    "name": "Patents Court",
    "slug": "Patents-Court",
    "lat": "51.51589485",
    "lon": "-0.109676441",
    "number": "NULL",
    "address": "Rolls Building! 7 Rolls Buildings! Fetter Lane",
    "townName": "London",
    "postcode": "EC4A 1NL"
  },
  {
    "name": "Peterborough Combined Court Centre",
    "slug": "Peterborough-Combined-Court-Centre",
    "lat": "52.5698906",
    "lon": "-0.23991676",
    "number": "473",
    "address": "Crown Buildings!Rivergate",
    "townName": "Peterborough",
    "postcode": "PE1 1EJ"
  },
  {
    "name": "Peterborough Magistrates' Court",
    "slug": "Peterborough-Magistrates-Court",
    "lat": "52.56980688",
    "lon": "-0.241543269",
    "number": "NULL",
    "address": "The Court House!Bridge Street",
    "townName": "Peterborough",
    "postcode": "PE1 1ED"
  },
  {
    "name": "Peterlee Magistrates' Court",
    "slug": "Peterlee-Magistrates-Court",
    "lat": "54.75579552",
    "lon": "-1.336910565",
    "number": "NULL",
    "address": "St Aidans Way",
    "townName": "Peterlee",
    "postcode": "SR8 1QR"
  },
  {
    "name": "Plymouth Combined Court",
    "slug": "Plymouth-Combined-Court",
    "lat": "50.36919399",
    "lon": "-4.141693801",
    "number": "446",
    "address": "The Law Courts!10 Armada Way",
    "townName": "Plymouth",
    "postcode": "PL1 2ER"
  },
  {
    "name": "Plymouth Magistrates' Court",
    "slug": "Plymouth-Magistrates-Court",
    "lat": "50.36928698",
    "lon": "-4.139574503",
    "number": "NULL",
    "address": "St Andrews Street",
    "townName": "Plymouth",
    "postcode": "PL1 2DP"
  },
  {
    "name": "Pontypridd County Court and Family Court",
    "slug": "Pontypridd-County-Court-and-Family-Court",
    "lat": "51.59977557",
    "lon": "-3.344303265",
    "number": "NULL",
    "address": "The Courthouse!Courthouse Street",
    "townName": "Pontypridd",
    "postcode": "CF37 1JR"
  },
  {
    "name": "Poole Magistrates' Court",
    "slug": "Poole-Magistrates-Court",
    "lat": "50.72206487",
    "lon": "-1.960933831",
    "number": "NULL",
    "address": "The Law Courts!Park Road",
    "townName": "Poole",
    "postcode": "BH15 2NS"
  },
  {
    "name": "Port Talbot Justice Centre",
    "slug": "Port-Talbot-Justice-Centre",
    "lat": "51.5906477",
    "lon": "-3.785949793",
    "number": "NULL",
    "address": "Harbourside Road",
    "townName": "Port Talbot",
    "postcode": "SA13 1SB"
  },
  {
    "name": "Portsmouth Combined Court Centre",
    "slug": "Portsmouth-Combined-Court-Centre",
    "lat": "50.79575281",
    "lon": "-1.091162856",
    "number": "447",
    "address": "The Courts of Justice!Winston Churchill Avenue",
    "townName": "Portsmouth",
    "postcode": "PO1 2EB"
  },
  {
    "name": "Portsmouth Magistrates' Court",
    "slug": "Portsmouth-Magistrates-Court",
    "lat": "50.79586007",
    "lon": "-1.089926337",
    "number": "NULL",
    "address": "The Law Courts!Winston Churchill Avenue",
    "townName": "Portsmouth",
    "postcode": "PO1 2DQ"
  },
  {
    "name": "Prestatyn Justice Centre",
    "slug": "Prestatyn-Justice-Centre",
    "lat": "53.33657472",
    "lon": "-3.416430884",
    "number": "308",
    "address": "Victoria Road",
    "townName": "Prestatyn",
    "postcode": "LL19 7TE"
  },
  {
    "name": "Preston Combined Court Centre",
    "slug": "Preston-Combined-Court-Centre",
    "lat": "53.76238529",
    "lon": "-2.698982792",
    "number": "448",
    "address": "The Law Courts!Openshaw Place!Ring Way",
    "townName": "Preston",
    "postcode": "PR1 2LL"
  },
  {
    "name": "Preston Crown Court and Family Court (Sessions House)",
    "slug": "Preston-Crown-Court-and-Family-Court-Sessions-House",
    "lat": "53.75955667",
    "lon": "-2.69852626",
    "number": "448",
    "address": "The Family Court!Sessions House!Lancaster Road",
    "townName": "Preston",
    "postcode": "PR1 2PD"
  },
  {
    "name": "Preston Magistrates' Court",
    "slug": "Preston-Magistrates-Court",
    "lat": "53.76353387",
    "lon": "-2.702384715",
    "number": "NULL",
    "address": "Lawson Street",
    "townName": "Preston",
    "postcode": "PR1 2QT"
  },
  {
    "name": "Queen's Bench Division",
    "slug": "Queen-Bench-Division",
    "lat": "51.51364538",
    "lon": "-0.113546081",
    "number": "NULL",
    "address": "Queen's Bench Division - Foreign Process!The Royal Courts of Justice!Strand!",
    "townName": "London",
    "postcode": "WC2A 2LL"
  },
  {
    "name": "Reading County Court and Family Court",
    "slug": "Reading-County-Court-and-Family-Court",
    "lat": "51.45657544",
    "lon": "-0.971178806",
    "number": "NULL",
    "address": "Hearing Centre!160-163 Friar Street",
    "townName": "Reading",
    "postcode": "RG1 1HE"
  },
  {
    "name": "Reading Crown Court",
    "slug": "Reading-Crown-Court",
    "lat": "51.45613763",
    "lon": "-0.967403324",
    "number": "449",
    "address": "Old Shire Hall!The Forbury",
    "townName": "Reading",
    "postcode": "RG1 3EH"
  },
  {
    "name": "Reading Magistrates' Court and Family Court",
    "slug": "Reading-Magistrates-Court-and-Family-Court",
    "lat": "51.45334235",
    "lon": "-0.975741766",
    "number": "NULL",
    "address": "Castle Street",
    "townName": "Reading",
    "postcode": "RG1 7TQ"
  },
  {
    "name": "Reading Tribunal Hearing Centre",
    "slug": "Reading-Tribunal-Hearing-Centre",
    "lat": "51.45693316",
    "lon": "-0.974034994",
    "number": "NULL",
    "address": "2nd Floor!30-31 Friar Street",
    "townName": "Reading",
    "postcode": "RG1 1DX"
  },
  {
    "name": "Redditch Magistrates' Court",
    "slug": "Redditch-Magistrates-Court",
    "lat": "52.30612231",
    "lon": "-1.937242038",
    "number": "NULL",
    "address": "Redditch Magistrates' Court!Grove Street!Worcs",
    "townName": "Redditch",
    "postcode": "B98 8DB"
  },
  {
    "name": "Reedley Family Hearing Centre",
    "slug": "Reedley-Family-Hearing-Centre",
    "lat": "53.81805021",
    "lon": "-2.234740132",
    "number": "NULL",
    "address": "The Court House!Colne Road (Junction with Swaledale Avenue)!Reedley (Nr Brierfield)",
    "townName": "Burnley",
    "postcode": "BB10 2LJ"
  },
  {
    "name": "Residential Property Eastern Region - First-tier Tribunal (Property Chamber)",
    "slug": "Residential-Property-Eastern-Region-First-tier-Tribunal-Property-Chamber",
    "lat": "NULL",
    "lon": "NULL",
    "number": "NULL",
    "address": "Cambridge County Court!197 East Road",
    "townName": "Cambridge",
    "postcode": "CB1 1BA"
  },
  {
    "name": "Residential Property London Region - First Tier Tribunal (Property Chamber)",
    "slug": "Residential-Property-London-Region-First-Tier-Tribunal-Property-Chamber",
    "lat": "NULL",
    "lon": "NULL",
    "number": "NULL",
    "address": "10 Alfred Place",
    "townName": "London",
    "postcode": "WC1E 7LR"
  },
  {
    "name": "Residential Property Midlands Region - First Tier Tribunal (Property Chamber)",
    "slug": "Residential-Property-Midlands-Region-First-Tier-Tribunal-Property-Chamber",
    "lat": "NULL",
    "lon": "NULL",
    "number": "NULL",
    "address": "Centre City Tower!13th Floor!5-7 Hill Street!",
    "townName": "Birmingham",
    "postcode": "B5 4UU"
  },
  {
    "name": "Residential Property Northern Region - First Tier Tribunal (Property Chamber)",
    "slug": "Residential-Property-Northern-Region-First-Tier-Tribunal-Property-Chamber",
    "lat": "NULL",
    "lon": "NULL",
    "number": "NULL",
    "address": "1st Floor !Piccadilly Exchange !2 Piccadilly Plaza!",
    "townName": "Manchester",
    "postcode": "M1 4AH"
  },
  {
    "name": "Residential Property Southern Region - First Tier Tribunal (Property Chamber)",
    "slug": "Residential-Property-Southern-Region-First-Tier-Tribunal-Property-Chamber",
    "lat": "NULL",
    "lon": "NULL",
    "number": "NULL",
    "address": "Havant Justice Centre!The Court House!Elmleigh Road!Havant",
    "townName": "Portsmouth",
    "postcode": "PO9 2AL"
  },
  {
    "name": "Rolls Building, Business and Property Courts of England & Wales",
    "slug": "Rolls-Building-Business-and-Property-Courts-of-England-&-Wales",
    "lat": "51.51576958",
    "lon": "-0.110316308",
    "number": "NULL",
    "address": "7 Rolls Buildings!Fetter Lane",
    "townName": "London",
    "postcode": "EC4A 1NL"
  },
  {
    "name": "Romford County Court and Family Court",
    "slug": "Romford-County-Court-and-Family-Court",
    "lat": "51.58260595",
    "lon": "0.187594184",
    "number": "NULL",
    "address": "2a Oaklands Avenue",
    "townName": "Romford",
    "postcode": "RM1 4DP"
  },
  {
    "name": "Romford Magistrates' Court (formerly Havering Magistrates' Court)",
    "slug": "Romford-Magistrates-Court-formerly-Havering-Magistrates-Court",
    "lat": "51.582147",
    "lon": "0.186143",
    "number": "NULL",
    "address": "Main Road",
    "townName": "Romford",
    "postcode": "RM1 3BH"
  },
  {
    "name": "Royal Courts of Justice",
    "slug": "Royal-Courts-of-Justice",
    "lat": "51.51364538",
    "lon": "-0.113546081",
    "number": "NULL",
    "address": "Strand",
    "townName": "London",
    "postcode": "WC2A 2LL"
  },
  {
    "name": "Salisbury Law Courts",
    "slug": "Salisbury-Law-Courts",
    "lat": "51.07337676",
    "lon": "-1.810385761",
    "number": "480",
    "address": "Salisbury Law Courts!Wilton Road",
    "townName": "Salisbury",
    "postcode": "SP2 7EP"
  },
  {
    "name": "Scarborough Justice Centre",
    "slug": "Scarborough-Justice-Centre",
    "lat": "54.28151987",
    "lon": "-0.40803257",
    "number": "NULL",
    "address": "The Law Courts!Northway",
    "townName": "Scarborough",
    "postcode": "YO12 7AE"
  },
  {
    "name": "Sefton Magistrates' Court",
    "slug": "Sefton-Magistrates-Court",
    "lat": "53.44892144",
    "lon": "-2.989101619",
    "number": "NULL",
    "address": "29 Merton Road",
    "townName": "Bootle",
    "postcode": "L20 3XX"
  },
  {
    "name": "Senior Courts Costs Office",
    "slug": "Senior-Courts-Costs-Office",
    "lat": "51.51414379",
    "lon": "-0.113741162",
    "number": "NULL",
    "address": "Royal Courts of Justice!Strand",
    "townName": "London",
    "postcode": "WC2A 2LL"
  },
  {
    "name": "Sevenoaks Magistrates' Court and Family Court",
    "slug": "Sevenoaks-Magistrates-Court-and-Family-Court",
    "lat": "51.28008415",
    "lon": "0.177275902",
    "number": "NULL",
    "address": "The Courthouse!Morewood Close!London Road",
    "townName": "Sevenoaks",
    "postcode": "TN13 2HU"
  },
  {
    "name": "Sheffield Combined Court Centre",
    "slug": "Sheffield-Combined-Court-Centre",
    "lat": "53.38555574",
    "lon": "-1.468739006",
    "number": "451",
    "address": "The Law Courts!50 West Bar",
    "townName": "Sheffield",
    "postcode": "S3 8PH"
  },
  {
    "name": "Sheffield Designated Family Court",
    "slug": "Sheffield-Designated-Family-Court",
    "lat": "53.38555574",
    "lon": "-1.468739006",
    "number": "NULL",
    "address": "48 West Bar",
    "townName": "Sheffield",
    "postcode": "S3 8PH"
  },
  {
    "name": "Sheffield Magistrates' Court",
    "slug": "Sheffield-Magistrates-Court",
    "lat": "53.38518863",
    "lon": "-1.465029999",
    "number": "NULL",
    "address": "Castle Street",
    "townName": "Sheffield",
    "postcode": "S3 8LU"
  },
  {
    "name": "Shrewsbury Crown Court",
    "slug": "Shrewsbury-Crown-Court",
    "lat": "52.70494938",
    "lon": "-2.729809486",
    "number": "452",
    "address": "Shrewsbury Justice Centre!Preston Street",
    "townName": "Shrewsbury",
    "postcode": "SY2 5NX"
  },
  {
    "name": "Skipton County Court and Family Court",
    "slug": "Skipton-County-Court-and-Family-Court",
    "lat": "53.96131175",
    "lon": "-2.013208398",
    "number": "NULL",
    "address": "The Court House!Otley Street",
    "townName": "Skipton",
    "postcode": "BD23 1RH"
  },
  {
    "name": "Skipton Magistrates' Court",
    "slug": "Skipton-Magistrates-Court",
    "lat": "NULL",
    "lon": "NULL",
    "number": "NULL",
    "address": "The Court House!Otley Street",
    "townName": "Skipton",
    "postcode": "BD23 1RH"
  },
  {
    "name": "Slough County Court and Family Court",
    "slug": "Slough-County-Court-and-Family-Court",
    "lat": "51.50740772",
    "lon": "-0.598103716",
    "number": "NULL",
    "address": "The Law Courts!Windsor Road",
    "townName": "Slough",
    "postcode": "SL1 2HE"
  },
  {
    "name": "Snaresbrook Crown Court",
    "slug": "Snaresbrook-Crown-Court",
    "lat": "51.58101721",
    "lon": "0.017283716",
    "number": "453",
    "address": "75 Hollybush Hill",
    "townName": "Snaresbrook",
    "postcode": "E11 1QW"
  },
  {
    "name": "South Regional Fixed Penalty Office",
    "slug": "South-Regional-Fixed-Penalty-Office",
    "lat": "NULL",
    "lon": "NULL",
    "number": "NULL",
    "address": "Southend Magistrates' Court!80 Victoria Avenue",
    "townName": "Southend-on-Sea",
    "postcode": "SS2 6EU"
  },
  {
    "name": "South Tyneside County Court and Family Court",
    "slug": "South-Tyneside-County-Court-and-Family-Court",
    "lat": "54.99312176",
    "lon": "-1.43888147",
    "number": "NULL",
    "address": "Millbank!Secretan Way!Tyne & Wear",
    "townName": "South Shields",
    "postcode": "NE33 1RG"
  },
  {
    "name": "South Tyneside Magistrates' Court",
    "slug": "South-Tyneside-Magistrates-Court",
    "lat": "54.99375946",
    "lon": "-1.438810056",
    "number": "NULL",
    "address": "Millbank!Secretan Way!Tyne & Wear",
    "townName": "South Shields",
    "postcode": "NE33 1RG"
  },
  {
    "name": "South West Regional Divorce Centre",
    "slug": "South-West-Regional-Divorce-Centre",
    "lat": "NULL",
    "lon": "NULL",
    "number": "0",
    "address": "PO Box 1792",
    "townName": "Southampton",
    "postcode": "SO15 9GG"
  },
  {
    "name": "South Worcestershire Magistrates' Court",
    "slug": "South-Worcestershire-Magistrates-Court",
    "lat": "52.19692663",
    "lon": "-2.2243265",
    "number": "NULL",
    "address": "Castle Street",
    "townName": "Worcester",
    "postcode": "WR1 3QZ"
  },
  {
    "name": "Southampton Combined Court Centre",
    "slug": "Southampton-Combined-Court-Centre",
    "lat": "50.91370566",
    "lon": "-1.402976894",
    "number": "454",
    "address": "The Courts of Justice!London Road",
    "townName": "Southampton",
    "postcode": "SO15 2XQ"
  },
  {
    "name": "Southend County Court and Family Court",
    "slug": "Southend-County-Court-and-Family-Court",
    "lat": "51.5375351",
    "lon": "0.715028391",
    "number": "NULL",
    "address": "80 Victoria Avenue",
    "townName": "Southend-on-Sea",
    "postcode": "SS2 6EU"
  },
  {
    "name": "Southend Crown Court",
    "slug": "Southend-Crown-Court",
    "lat": "51.54372842",
    "lon": "0.709728704",
    "number": "772",
    "address": "The Court House!Victoria Avenue",
    "townName": "Southend-on-Sea",
    "postcode": "SS2 6EG"
  },
  {
    "name": "Southend Magistrates' Court",
    "slug": "Southend-Magistrates-Court",
    "lat": "51.54372842",
    "lon": "0.709728704",
    "number": "NULL",
    "address": "The Court House!80 Victoria Avenue",
    "townName": "Southend-on-Sea",
    "postcode": "SS2 6EU"
  },
  {
    "name": "Southwark Crown Court",
    "slug": "Southwark-Crown-Court",
    "lat": "51.50571836",
    "lon": "-0.082171553",
    "number": "471",
    "address": "1 English Grounds!(off Battlebridge Lane)",
    "townName": "Southwark",
    "postcode": "SE1 2HU"
  },
  {
    "name": "Special Educational Needs and Disability  (First-tier Tribunal )",
    "slug": "Special-Educational-Needs-and-Disability-First-tier-Tribunal-",
    "lat": "NULL",
    "lon": "NULL",
    "number": "NULL",
    "address": "1st Floor!Darlington Magistrates' Court!Parkgate!",
    "townName": "Darlington",
    "postcode": "DL1 1ZD"
  },
  {
    "name": "St Albans Crown Court",
    "slug": "St-Albans-Crown-Court",
    "lat": "51.75184743",
    "lon": "-0.335151396",
    "number": "450",
    "address": "Bricket Road",
    "townName": "St. Albans",
    "postcode": "AL1 3JW"
  },
  {
    "name": "St Albans Magistrates' Court",
    "slug": "St-Albans-Magistrates-Court",
    "lat": "51.75249113",
    "lon": "-0.336793819",
    "number": "NULL",
    "address": "The Civic Centre!St Peter's Street",
    "townName": "St. Albans",
    "postcode": "AL1 3LB"
  },
  {
    "name": "St Helens County Court and Family Court",
    "slug": "St-Helens-County-Court-and-Family-Court",
    "lat": "53.45493346",
    "lon": "-2.736751227",
    "number": "NULL",
    "address": "Corporation Street",
    "townName": "St. Helens",
    "postcode": "WA10 1SZ"
  },
  {
    "name": "Stafford Combined Court Centre",
    "slug": "Stafford-Combined-Court-Centre",
    "lat": "52.80542826",
    "lon": "-2.119429195",
    "number": "455",
    "address": "Victoria Square",
    "townName": "Stafford",
    "postcode": "ST16 2QQ"
  },
  {
    "name": "Staffordshire Central Finance and Enforcement Unit",
    "slug": "Staffordshire-Central-Finance-and-Enforcement-Unit",
    "lat": "52.76181651",
    "lon": "-1.932383151",
    "number": "NULL",
    "address": "The Court House!Bryans Lane",
    "townName": "Rugeley",
    "postcode": "WS15 2FX"
  },
  {
    "name": "Staines County Court and Family Court",
    "slug": "Staines-County-Court-and-Family-Court",
    "lat": "51.42909772",
    "lon": "-0.498095603",
    "number": "NULL",
    "address": "The Law Courts!Knowle Green",
    "townName": "Staines",
    "postcode": "TW18 1XH"
  },
  {
    "name": "Staines Magistrates' Court and Family Court",
    "slug": "Staines-Magistrates-Court-and-Family-Court",
    "lat": "51.42909772",
    "lon": "-0.498095603",
    "number": "NULL",
    "address": "The Law Courts!Knowle Green",
    "townName": "Staines",
    "postcode": "TW18 1XH"
  },
  {
    "name": "Stevenage Magistrates' Court",
    "slug": "Stevenage-Magistrates-Court",
    "lat": "51.90115496",
    "lon": "-0.204136225",
    "number": "NULL",
    "address": "The Court House!Danesgate",
    "townName": "Stevenage",
    "postcode": "SG1 1XH"
  },
  {
    "name": "Stirling Tribunal Hearing Centre",
    "slug": "Stirling-Tribunal-Hearing-Centre",
    "lat": "56.12042586",
    "lon": "-3.937371446",
    "number": "NULL",
    "address": "Wallace House!Maxwell Place",
    "townName": "Stirling",
    "postcode": "FK8 1JU"
  },
  {
    "name": "Stockport County Court and Family Court",
    "slug": "Stockport-County-Court-and-Family-Court",
    "lat": "53.40636515",
    "lon": "-2.155254583",
    "number": "NULL",
    "address": "The Courthouse!Edward Street",
    "townName": "Stockport",
    "postcode": "SK1 3DQ"
  },
  {
    "name": "Stockport Magistrates' Court",
    "slug": "Stockport-Magistrates-Court",
    "lat": "53.4063015",
    "lon": "-2.155810904",
    "number": "NULL",
    "address": "The Courthouse!Edward Street",
    "townName": "Stockport",
    "postcode": "SK1 3NF"
  },
  {
    "name": "Stoke-on-Trent Combined Court",
    "slug": "Stoke-on-Trent-Combined-Court",
    "lat": "53.02203635",
    "lon": "-2.175753907",
    "number": "456",
    "address": "Bethesda Street!Hanley",
    "townName": "Stoke-on-Trent",
    "postcode": "ST1 3BP"
  },
  {
    "name": "Stratford Housing Centre",
    "slug": "Stratford-Housing-Centre",
    "lat": "51.5391595",
    "lon": "0.000305031",
    "number": "NULL",
    "address": "389 – 397 Stratford High Street!Stratford",
    "townName": "London",
    "postcode": "E15 4SB"
  },
  {
    "name": "Stratford Magistrates' Court",
    "slug": "Stratford-Magistrates-Court",
    "lat": "51.5391595",
    "lon": "0.000305031",
    "number": "NULL",
    "address": "The Court House!389-397 High Street!Stratford!",
    "townName": "London",
    "postcode": "E15 4SB"
  },
  {
    "name": "Sunderland County, Family, Magistrates’ and Tribunal Hearings",
    "slug": "Sunderland-County-Family-Magistrates’-and-Tribunal-Hearings",
    "lat": "54.90717994",
    "lon": "-1.387547742",
    "number": "NULL",
    "address": "Gillbridge Avenue",
    "townName": "Sunderland",
    "postcode": "SR1 3AP"
  },
  {
    "name": "Sutton Social Security and Child Support Tribunal",
    "slug": "Sutton-Social-Security-and-Child-Support-Tribunal",
    "lat": "51.35979756",
    "lon": "-0.193890347",
    "number": "NULL",
    "address": "Copthall House!9 The Pavement!Grove Road!",
    "townName": "Sutton",
    "postcode": "SM1 1DA"
  },
  {
    "name": "Swansea Civil Justice Centre",
    "slug": "Swansea-Civil-Justice-Centre",
    "lat": "51.62017554",
    "lon": "-3.938025692",
    "number": "NULL",
    "address": "Caravella House!Quay West!Quay Parade",
    "townName": "Swansea",
    "postcode": "SA1 1SP"
  },
  {
    "name": "Swansea Crown Court",
    "slug": "Swansea-Crown-Court",
    "lat": "51.61443817",
    "lon": "-3.957540958",
    "number": "457",
    "address": "The Law Courts!St Helen's Road",
    "townName": "Swansea",
    "postcode": "SA1 4PF"
  },
  {
    "name": "Swansea Magistrates' Court",
    "slug": "Swansea-Magistrates-Court",
    "lat": "51.62187934",
    "lon": "-3.9453794",
    "number": "NULL",
    "address": "Grove Place",
    "townName": "Swansea",
    "postcode": "SA1 5DB"
  },
  {
    "name": "Swindon Combined Court",
    "slug": "Swindon-Combined-Court",
    "lat": "51.5611032",
    "lon": "-1.781910902",
    "number": "458",
    "address": "The Law Courts!Islington Street",
    "townName": "Swindon",
    "postcode": "SN1 2HG"
  },
  {
    "name": "Swindon Magistrates' Court",
    "slug": "Swindon-Magistrates-Court",
    "lat": "51.56101175",
    "lon": "-1.781089089",
    "number": "NULL",
    "address": "Princes Street",
    "townName": "Swindon",
    "postcode": "SN1 2JB"
  },
  {
    "name": "Tameside Magistrates' Court",
    "slug": "Tameside-Magistrates-Court",
    "lat": "53.48570095",
    "lon": "-2.102196595",
    "number": "NULL",
    "address": "Henry Square",
    "townName": "Ashton-under-Lyne",
    "postcode": "OL6 7TP"
  },
  {
    "name": "Taunton Crown, County and Family Court",
    "slug": "Taunton-Crown-County-and-Family-Court",
    "lat": "51.01276841",
    "lon": "-3.107709057",
    "number": "459",
    "address": "The Shire Hall",
    "townName": "Taunton",
    "postcode": "TA1 4EU"
  },
  {
    "name": "Taunton Magistrates' Court, Tribunals and Family Hearing Centre",
    "slug": "Taunton-Magistrates-Court-Tribunals-and-Family-Hearing-Centre",
    "lat": "51.01429652",
    "lon": "-3.109669994",
    "number": "NULL",
    "address": "The Magistrates' Court!St John's Road",
    "townName": "Taunton",
    "postcode": "TA1 4AX"
  },
  {
    "name": "Tax Chamber (First-tier Tribunal)",
    "slug": "Tax-Chamber-First-tier-Tribunal",
    "lat": "NULL",
    "lon": "NULL",
    "number": "NULL",
    "address": "PO Box 16972",
    "townName": "Birmingham",
    "postcode": "B16 6TZ"
  },
  {
    "name": "Taylor House Tribunal Hearing Centre",
    "slug": "Taylor-House-Tribunal-Hearing-Centre",
    "lat": "51.52739554",
    "lon": "-0.107441828",
    "number": "NULL",
    "address": "Taylor House!88 Rosebery Avenue",
    "townName": "London",
    "postcode": "EC1R 4QU"
  },
  {
    "name": "Technology & Construction Court",
    "slug": "Technology-&-Construction-Court",
    "lat": "51.51589485",
    "lon": "-0.109676441",
    "number": "NULL",
    "address": "Rolls Building! 7 Rolls Buildings! Fetter Lane",
    "townName": "London",
    "postcode": "EC4A 1NL"
  },
  {
    "name": "Teesside Combined Court Centre",
    "slug": "Teesside-Combined-Court-Centre",
    "lat": "54.57520892",
    "lon": "-1.23123218",
    "number": "460",
    "address": "Centre Square",
    "townName": "Middlesbrough",
    "postcode": "TS1 2AE"
  },
  {
    "name": "Teesside Magistrates' Court",
    "slug": "Teesside-Magistrates-Court",
    "lat": "54.57352256",
    "lon": "-1.234574282",
    "number": "NULL",
    "address": "Teesside Justice Centre!Teesside Magistrates Court, !SSCS and Employment Tribunal Hearing Centre!Victoria Square",
    "townName": "Middlesbrough",
    "postcode": "TS1 2AS"
  },
  {
    "name": "Telford County Court and Family Court",
    "slug": "Telford-County-Court-and-Family-Court",
    "lat": "52.67795839",
    "lon": "-2.450848977",
    "number": "NULL",
    "address": "Telford Justice Centre!Telford Square!Malinsgate",
    "townName": "Telford",
    "postcode": "TF3 4HX"
  },
  {
    "name": "Telford Magistrates' Court",
    "slug": "Telford-Magistrates-Court",
    "lat": "52.67795839",
    "lon": "-2.450848977",
    "number": "NULL",
    "address": "Telford Justice Centre!Telford Square!Malinsgate!Shropshire",
    "townName": "Telford",
    "postcode": "TF3 4HX"
  },
  {
    "name": "Thames Magistrates' Court",
    "slug": "Thames-Magistrates-Court",
    "lat": "51.52713626",
    "lon": "-0.023562585",
    "number": "NULL",
    "address": "58 Bow Road",
    "townName": "London",
    "postcode": "E3 4DJ"
  },
  {
    "name": "Thanet County Court and Family Court",
    "slug": "Thanet-County-Court-and-Family-Court",
    "lat": "51.38756402",
    "lon": "1.381807033",
    "number": "NULL",
    "address": "The Court House!2nd Floor!Cecil Square",
    "townName": "Margate",
    "postcode": "CT9 1RL"
  },
  {
    "name": "Torquay and Newton Abbot County Court and Family Court",
    "slug": "Torquay-and-Newton-Abbot-County-Court-and-Family-Court",
    "lat": "50.48676746",
    "lon": "-3.551821309",
    "number": "NULL",
    "address": "The Willows!Nicholson Road",
    "townName": "Torquay",
    "postcode": "TQ2 7AZ"
  },
  {
    "name": "Traffic Enforcement Centre (TEC)",
    "slug": "Traffic-Enforcement-Centre-TEC",
    "lat": "52.2373018",
    "lon": "-0.899965458",
    "number": "NULL",
    "address": "5th Floor! St Katharine's House! 21-27 St Katharine's Street",
    "townName": "Northampton",
    "postcode": "NN1 2LH"
  },
  {
    "name": "Truro County Court and Family Court",
    "slug": "Truro-County-Court-and-Family-Court",
    "lat": "50.26562599",
    "lon": "-5.056408276",
    "number": "NULL",
    "address": "Edward Street",
    "townName": "Truro",
    "postcode": "TR1 2PB"
  },
  {
    "name": "Truro Crown Court",
    "slug": "Truro-Crown-Court",
    "lat": "50.26562599",
    "lon": "-5.056408276",
    "number": "477",
    "address": "Courts of Justice!Edward Street",
    "townName": "Truro",
    "postcode": "TR1 2PB"
  },
  {
    "name": "Truro Magistrates' Court",
    "slug": "Truro-Magistrates-Court",
    "lat": "50.26880887",
    "lon": "-5.043798229",
    "number": "NULL",
    "address": "The Court House!Tremorvah Wood Lane!Mitchell Hill!",
    "townName": "Truro",
    "postcode": "TR1 1HZ"
  },
  {
    "name": "Upper Tribunal (Administrative Appeals Chamber)",
    "slug": "Upper-Tribunal-Administrative-Appeals-Chamber",
    "lat": "NULL",
    "lon": "NULL",
    "number": "NULL",
    "address": "5th Floor Rolls Building!7 Rolls Buildings!Fetter Lane!",
    "townName": "London",
    "postcode": "EC4A 1NL"
  },
  {
    "name": "Upper Tribunal (Lands Chamber)",
    "slug": "Upper-Tribunal-Lands-Chamber",
    "lat": "51.51576958",
    "lon": "-0.110316308",
    "number": "NULL",
    "address": "7 Rolls Building!Fetter Lane",
    "townName": "London",
    "postcode": "EC4A 1NL"
  },
  {
    "name": "Upper Tribunal (Tax and Chancery Chamber)",
    "slug": "Upper-Tribunal-Tax-and-Chancery-Chamber",
    "lat": "NULL",
    "lon": "NULL",
    "number": "NULL",
    "address": "5th Floor, Rolls Building!7 Rolls Buildings!Fetter Lane",
    "townName": "London",
    "postcode": "EC4A 1NL"
  },
  {
    "name": "Uxbridge County Court and Family Court",
    "slug": "Uxbridge-County-Court-and-Family-Court",
    "lat": "51.522258",
    "lon": "-0.421476543",
    "number": "NULL",
    "address": "501 Uxbridge Road",
    "townName": "Hayes",
    "postcode": "UB4 8HL"
  },
  {
    "name": "Uxbridge Magistrates' Court",
    "slug": "Uxbridge-Magistrates-Court",
    "lat": "51.54947027",
    "lon": "-0.481587317",
    "number": "NULL",
    "address": "The Court House!Harefield Road",
    "townName": "Uxbridge",
    "postcode": "UB8 1PQ"
  },
  {
    "name": "Wakefield Civil and Family Justice Centre",
    "slug": "Wakefield-Civil-and-Family-Justice-Centre",
    "lat": "NULL",
    "lon": "NULL",
    "number": "NULL",
    "address": "1 Mulberry Way",
    "townName": "Wakefield",
    "postcode": "WF1 2QN"
  },
  {
    "name": "Wales Employment Tribunal",
    "slug": "Wales-Employment-Tribunal",
    "lat": "51.48210459",
    "lon": "-3.166483122",
    "number": "NULL",
    "address": "3rd Floor!Cardiff and the Vale Magistrates Court!Fitzalan Place",
    "townName": "Cardiff",
    "postcode": "CF24 0RZ"
  },
  {
    "name": "Wales Enforcement  Office",
    "slug": "Wales-Enforcement-Office",
    "lat": "51.59181098",
    "lon": "-3.785143662",
    "number": "NULL",
    "address": "Port Talbot Justice Centre!Harbourside Road",
    "townName": "Port Talbot",
    "postcode": "SA13 1SB"
  },
  {
    "name": "Walsall County and Family Court",
    "slug": "Walsall-County-and-Family-Court",
    "lat": "52.58480919",
    "lon": "-1.977965538",
    "number": "NULL",
    "address": "Bridge House!Bridge Street",
    "townName": "Walsall",
    "postcode": "WS1 1JQ"
  },
  {
    "name": "Walsall Magistrates' Court",
    "slug": "Walsall-Magistrates-Court",
    "lat": "52.58909047",
    "lon": "-1.985638941",
    "number": "NULL",
    "address": "Stafford Street",
    "townName": "Walsall",
    "postcode": "WS2 8HA"
  },
  {
    "name": "Wandsworth County Court and Family Court",
    "slug": "Wandsworth-County-Court-and-Family-Court",
    "lat": "51.45914901",
    "lon": "-0.209217124",
    "number": "NULL",
    "address": "76-78 Upper Richmond Road",
    "townName": "Putney",
    "postcode": "SW15 2SU"
  },
  {
    "name": "War Pensions & Armed Forces Compensation Chamber",
    "slug": "War-Pensions-&-Armed-Forces-Compensation-Chamber",
    "lat": "NULL",
    "lon": "NULL",
    "number": "NULL",
    "address": "Fox Court !30 Brooke Street !London!",
    "townName": "London",
    "postcode": "EC1N 7RS"
  },
  {
    "name": "Warrington Crown Court",
    "slug": "Warrington-Crown-Court",
    "lat": "53.39067176",
    "lon": "-2.5988062",
    "number": "462",
    "address": "Law Courts!Legh Street",
    "townName": "Warrington",
    "postcode": "WA1 1UR"
  },
  {
    "name": "Warrington Magistrates' Court",
    "slug": "Warrington-Magistrates-Court",
    "lat": "53.39067176",
    "lon": "-2.5988062",
    "number": "NULL",
    "address": "Warrington Law Courts!Legh Street",
    "townName": "Warrington",
    "postcode": "WA1 1UR"
  },
  {
    "name": "Warwick Combined Court",
    "slug": "Warwick-Combined-Court",
    "lat": "52.28838868",
    "lon": "-1.533457106",
    "number": "463",
    "address": "Warwickshire Justice Centre!Newbold Terrace",
    "townName": "Leamington Spa",
    "postcode": "CV32 4EL"
  },
  {
    "name": "Watford County Court and Family Court",
    "slug": "Watford-County-Court-and-Family-Court",
    "lat": "51.6636754",
    "lon": "-0.398796389",
    "number": "NULL",
    "address": "3rd Floor!Cassiobury House!11-19 Station Road!",
    "townName": "Watford",
    "postcode": "WD17 1EZ"
  },
  {
    "name": "Watford Tribunal Hearing Centre",
    "slug": "Watford-Tribunal-Hearing-Centre",
    "lat": "51.65979039",
    "lon": "-0.397444147",
    "number": "NULL",
    "address": "Radius House!51 Clarendon Road",
    "townName": "Watford",
    "postcode": "WD17 1HP"
  },
  {
    "name": "Wellingborough Magistrates' Court",
    "slug": "Wellingborough-Magistrates-Court",
    "lat": "52.30157334",
    "lon": "-0.689109351",
    "number": "NULL",
    "address": "The Court House!Midland Road",
    "townName": "Wellingborough",
    "postcode": "NN8 1HF"
  },
  {
    "name": "Welshpool Magistrates' Court",
    "slug": "Welshpool-Magistrates-Court",
    "lat": "52.65902211",
    "lon": "-3.146283303",
    "number": "366",
    "address": "Mansion House!24 Severn Street",
    "townName": "Welshpool",
    "postcode": "SY21 7UX"
  },
  {
    "name": "West Cumbria Courthouse",
    "slug": "West-Cumbria-Courthouse",
    "lat": "54.64397043",
    "lon": "-3.542340206",
    "number": "NULL",
    "address": "Hall Park!Ramsay Brow",
    "townName": "Workington",
    "postcode": "CA14 4AS"
  },
  {
    "name": "West Hampshire Magistrates' Court",
    "slug": "West-Hampshire-Magistrates-Court",
    "lat": "50.9143348",
    "lon": "-1.402911949",
    "number": "NULL",
    "address": "Southampton Courthouse!100 The Avenue",
    "townName": "Southampton",
    "postcode": "SO17 1EY"
  },
  {
    "name": "West London Family Court",
    "slug": "West-London-Family-Court",
    "lat": "51.45853632",
    "lon": "-0.412620877",
    "number": "NULL",
    "address": "Gloucester House!4 Dukes Green Avenue",
    "townName": "Feltham",
    "postcode": "TW14 0LR"
  },
  {
    "name": "West Yorkshire Enforcement Office",
    "slug": "West-Yorkshire-Enforcement-Office",
    "lat": "53.74356847",
    "lon": "-1.599286672",
    "number": "NULL",
    "address": "Collection and Enforcement Centre!P.O. Box 135",
    "townName": "Leeds",
    "postcode": "LS27 7ZT"
  },
  {
    "name": "Westminster Magistrates' Court",
    "slug": "Westminster-Magistrates-Court",
    "lat": "51.5207076",
    "lon": "-0.164180319",
    "number": "NULL",
    "address": "181 Marylebone Road",
    "townName": "London",
    "postcode": "NW1 5BR"
  },
  {
    "name": "Weston-Super-Mare County Court and Family Court",
    "slug": "Weston-Super-Mare-County-Court-and-Family-Court",
    "lat": "51.36071336",
    "lon": "-2.9050786",
    "number": "NULL",
    "address": "North Somerset Courthouse!The Hedges!St Georges",
    "townName": "Weston-Super-Mare",
    "postcode": "BS22 7BB"
  },
  {
    "name": "Weymouth Combined Court",
    "slug": "Weymouth-Combined-Court",
    "lat": "50.60840159",
    "lon": "-2.460105034",
    "number": "NULL",
    "address": "The Law Courts!Westwey Road",
    "townName": "Weymouth",
    "postcode": "DT4 8BS"
  },
  {
    "name": "Wigan and Leigh Magistrates' Court",
    "slug": "Wigan-and-Leigh-Magistrates-Court",
    "lat": "53.54299481",
    "lon": "-2.626427738",
    "number": "NULL",
    "address": "Darlington Street",
    "townName": "Wigan",
    "postcode": "WN1 1DW"
  },
  {
    "name": "Wigan County Court and Family Court",
    "slug": "Wigan-County-Court-and-Family-Court",
    "lat": "53.54299481",
    "lon": "-2.626427738",
    "number": "NULL",
    "address": "Wigan and Leigh Courthouse!Darlington Street",
    "townName": "Wigan",
    "postcode": "WN1 1DW"
  },
  {
    "name": "Willesden County Court and Family Court",
    "slug": "Willesden-County-Court-and-Family-Court",
    "lat": "51.53539114",
    "lon": "-0.248805377",
    "number": "NULL",
    "address": "9 Acton Lane",
    "townName": "Harlesden",
    "postcode": "NW10 8SB"
  },
  {
    "name": "Willesden Magistrates' Court",
    "slug": "Willesden-Magistrates-Court",
    "lat": "51.54935891",
    "lon": "-0.247778701",
    "number": "NULL",
    "address": "448 High Road",
    "townName": "London",
    "postcode": "NW10 2DZ"
  },
  {
    "name": "Wimbledon Magistrates' Court",
    "slug": "Wimbledon-Magistrates-Court",
    "lat": "51.4236325",
    "lon": "-0.203600952",
    "number": "NULL",
    "address": "The Court House!Alexandra Road",
    "townName": "Wimbledon",
    "postcode": "SW19 7JP"
  },
  {
    "name": "Winchester Combined Court Centre",
    "slug": "Winchester-Combined-Court-Centre",
    "lat": "51.06244785",
    "lon": "-1.31898486",
    "number": "465",
    "address": "Winchester Combined Court!The Law Courts",
    "townName": "Winchester",
    "postcode": "SO23 9EL"
  },
  {
    "name": "Winchester District Probate Registry",
    "slug": "Winchester-District-Probate-Registry",
    "lat": "51.06244785",
    "lon": "-1.31898486",
    "number": "NULL",
    "address": "1st Floor!Southside Offices!The Law Courts!",
    "townName": "Winchester",
    "postcode": "SO23 9EL"
  },
  {
    "name": "Wirral Magistrates' Court",
    "slug": "Wirral-Magistrates-Court",
    "lat": "53.39295878",
    "lon": "-3.013473025",
    "number": "NULL",
    "address": "Chester Street",
    "townName": "Birkenhead",
    "postcode": "CH41 5HW"
  },
  {
    "name": "Wolverhampton Combined Court Centre",
    "slug": "Wolverhampton-Combined-Court-Centre",
    "lat": "52.58436139",
    "lon": "-2.122132135",
    "number": "421",
    "address": "Pipers Row",
    "townName": "Wolverhampton",
    "postcode": "WV1 3LQ"
  },
  {
    "name": "Wolverhampton Magistrates' Court",
    "slug": "Wolverhampton-Magistrates-Court",
    "lat": "52.58616945",
    "lon": "-2.130417377",
    "number": "NULL",
    "address": "The Law Courts!North Street",
    "townName": "Wolverhampton",
    "postcode": "WV1 1RA"
  },
  {
    "name": "Wood Green Crown Court",
    "slug": "Wood-Green-Crown-Court",
    "lat": "51.59884072",
    "lon": "-0.105165586",
    "number": "469",
    "address": "Woodall House!Lordship Lane",
    "townName": "Wood Green",
    "postcode": "N22 5LF"
  },
  {
    "name": "Woolwich Crown Court",
    "slug": "Woolwich-Crown-Court",
    "lat": "51.49649688",
    "lon": "0.0901384",
    "number": "472",
    "address": "2 Belmarsh Road",
    "townName": "London",
    "postcode": "SE28 0EY"
  },
  {
    "name": "Worcester Combined Court",
    "slug": "Worcester-Combined-Court",
    "lat": "52.19694924",
    "lon": "-2.221883335",
    "number": "466",
    "address": "The Shirehall!Foregate Street",
    "townName": "Worcester",
    "postcode": "WR1 1EQ"
  },
  {
    "name": "Worcester Justice Centre",
    "slug": "Worcester-Justice-Centre",
    "lat": "52.19692661",
    "lon": "-2.224341131",
    "number": "NULL",
    "address": "Castle Street",
    "townName": "Worcester",
    "postcode": "WR1 3QZ"
  },
  {
    "name": "Worthing County Court and Family Court",
    "slug": "Worthing-County-Court-and-Family-Court",
    "lat": "50.81416002",
    "lon": "-0.374064809",
    "number": "NULL",
    "address": "The Law Courts!Christchurch Road",
    "townName": "Worthing",
    "postcode": "BN11 1JD"
  },
  {
    "name": "Worthing Magistrates' Court",
    "slug": "Worthing-Magistrates-Court",
    "lat": "50.81405176",
    "lon": "-0.374040178",
    "number": "NULL",
    "address": "The Law Courts!Christchurch Road",
    "townName": "Worthing",
    "postcode": "BN11 1JE"
  },
  {
    "name": "Wrexham County and Family  Court",
    "slug": "Wrexham-County-and-Family-Court",
    "lat": "53.04845954",
    "lon": "-2.989527923",
    "number": "NULL",
    "address": "The Law Courts!Bodhyfryd",
    "townName": "Wrexham",
    "postcode": "LL12 7BP"
  },
  {
    "name": "Wrexham Magistrates' Court",
    "slug": "Wrexham-Magistrates-Court",
    "lat": "53.04845954",
    "lon": "-2.989527923",
    "number": "NULL",
    "address": "Bodhyfryd",
    "townName": "Wrexham",
    "postcode": "LL12 7BP"
  },
  {
    "name": "Yarl's Wood Immigration and Asylum Hearing Centre",
    "slug": "Yarls-Wood-Immigration-and-Asylum-Hearing-Centre",
    "lat": "52.19658709",
    "lon": "-0.489818842",
    "number": "NULL",
    "address": "Hearing Centre A!Twinwoods Business Centre!Thurleigh Road!",
    "townName": "Bedford",
    "postcode": "MK44 1FD"
  },
  {
    "name": "Yeovil County, Family and Magistrates' Court",
    "slug": "Yeovil-County-Family-and-Magistrates-Court",
    "lat": "50.9396232",
    "lon": "-2.633787222",
    "number": "NULL",
    "address": "The Law Courts!Petters Way",
    "townName": "Yeovil",
    "postcode": "BA20 1SW"
  },
  {
    "name": "York County Court and Family Court",
    "slug": "York-County-Court-and-Family-Court",
    "lat": "53.95469183",
    "lon": "-1.07655092",
    "number": "386",
    "address": "Piccadilly House!55 Piccadilly",
    "townName": "York",
    "postcode": "YO1 9WL"
  },
  {
    "name": "York Crown Court",
    "slug": "York-Crown-Court",
    "lat": "53.95527285",
    "lon": "-1.079646934",
    "number": "467",
    "address": "York Crown Court!The Castle",
    "townName": "York",
    "postcode": "YO1 9WZ"
  },
  {
    "name": "York Magistrates' Court and Family Court",
    "slug": "York-Magistrates-Court-and-Family-Court",
    "lat": "53.95641365",
    "lon": "-1.081907797",
    "number": "NULL",
    "address": "Law Courts!Clifford Street",
    "townName": "York",
    "postcode": "YO1 9RE"
  }
]
